{
"type": "FeatureCollection",
"crs": { "type": "name", "properties": { "name": "urn:ogc:def:crs:OGC:1.3:CRS84" } },
                                                                                
"features": [
{ "type": "Feature", "properties": { "_id": 1, "OBJECTID": 1, "NAME": "West Oak Lane", "ADDRESS": "72nd Ave and Ogontz Ave, 19138", "OPERATOR": "The Food Trust", "ACCEPT_SNA": "Yes", "ACCEPT_FMN": "Yes", "DISTRIBUTE": "Yes", "ONLY_REDEE": "No", "EBT_MACHIN": "Yes", "DAY_TIME": "Tu 2-6", "ZIP_CODE": "19138" }, "geometry": { "type": "Point", "coordinates": [ -75.15351422696591, 40.064286959290015 ] } },
{ "type": "Feature", "properties": { "_id": 2, "OBJECTID": 2, "NAME": "Broad and South", "ADDRESS": "Broad and South, 19147", "OPERATOR": "The Food Trust", "ACCEPT_SNA": "Yes", "ACCEPT_FMN": "Yes", "DISTRIBUTE": "Yes", "ONLY_REDEE": "No", "EBT_MACHIN": "Yes", "DAY_TIME": "W 2-7", "ZIP_CODE": "19147" }, "geometry": { "type": "Point", "coordinates": [ -75.165575349627616, 39.943665789360736 ] } },
{ "type": "Feature", "properties": { "_id": 3, "OBJECTID": 3, "NAME": "Cliveden Park", "ADDRESS": "Chew Ave. and Johnson St., 19119", "OPERATOR": "The Food Trust", "ACCEPT_SNA": "Yes", "ACCEPT_FMN": "Yes", "DISTRIBUTE": "Yes", "ONLY_REDEE": "No", "EBT_MACHIN": "Yes", "DAY_TIME": "W 2-6", "ZIP_CODE": "19119" }, "geometry": { "type": "Point", "coordinates": [ -75.175805699667649, 40.052242736514408 ] } },
{ "type": "Feature", "properties": { "_id": 4, "OBJECTID": 4, "NAME": "Haddington- both days", "ADDRESS": "52nd St and Haverford Ave., 19139", "OPERATOR": "The Food Trust", "ACCEPT_SNA": "Yes", "ACCEPT_FMN": "Yes", "DISTRIBUTE": "Yes", "ONLY_REDEE": "No", "EBT_MACHIN": "Yes", "DAY_TIME": "W, F 1-5", "ZIP_CODE": "19139" }, "geometry": { "type": "Point", "coordinates": [ -75.224591246573837, 39.964897037050349 ] } },
{ "type": "Feature", "properties": { "_id": 5, "OBJECTID": 5, "NAME": "Schuylkill River Park", "ADDRESS": "25th St. and Spruce Sts, 19103", "OPERATOR": "The Food Trust", "ACCEPT_SNA": "No", "ACCEPT_FMN": "Yes", "DISTRIBUTE": "No", "ONLY_REDEE": "Yes", "EBT_MACHIN": "No", "DAY_TIME": "W 3-7", "ZIP_CODE": "19103" }, "geometry": { "type": "Point", "coordinates": [ -75.181134091893256, 39.949009562792334 ] } },
{ "type": "Feature", "properties": { "_id": 6, "OBJECTID": 6, "NAME": "Clark Park (both days)", "ADDRESS": "43rd St. and Baltimore Ave., 19104", "OPERATOR": "The Food Trust", "ACCEPT_SNA": "Yes", "ACCEPT_FMN": "Yes", "DISTRIBUTE": "Yes", "ONLY_REDEE": "No", "EBT_MACHIN": "Yes", "DAY_TIME": "Th 2-6; Sat 10-2", "ZIP_CODE": "19104" }, "geometry": { "type": "Point", "coordinates": [ -75.209260163827352, 39.949542753308329 ] } },
{ "type": "Feature", "properties": { "_id": 7, "OBJECTID": 7, "NAME": "Fairmount", "ADDRESS": "22nd St. and Fairmount Ave., 19130", "OPERATOR": "The Food Trust", "ACCEPT_SNA": "Yes", "ACCEPT_FMN": "Yes", "DISTRIBUTE": "Yes", "ONLY_REDEE": "No", "EBT_MACHIN": "Yes", "DAY_TIME": "Th 3-7", "ZIP_CODE": "19130" }, "geometry": { "type": "Point", "coordinates": [ -75.17398419917923, 39.967315157231063 ] } },
{ "type": "Feature", "properties": { "_id": 8, "OBJECTID": 8, "NAME": "Oxford Circle", "ADDRESS": "900 East Howell St, 19149", "OPERATOR": "The Food Trust", "ACCEPT_SNA": "Yes", "ACCEPT_FMN": "Yes", "DISTRIBUTE": "Yes", "ONLY_REDEE": "No", "EBT_MACHIN": "Yes", "DAY_TIME": "Th 2-6", "ZIP_CODE": "19149" }, "geometry": { "type": "Point", "coordinates": [ -75.091036964340859, 40.03821942964688 ] } },
{ "type": "Feature", "properties": { "_id": 9, "OBJECTID": 9, "NAME": "Frankford & Berks", "ADDRESS": "Frankford Ave. and E. Berks St., 19125", "OPERATOR": "The Food Trust", "ACCEPT_SNA": "Yes", "ACCEPT_FMN": "Yes", "DISTRIBUTE": "Yes", "ONLY_REDEE": "No", "EBT_MACHIN": "Yes", "DAY_TIME": "Th 2-6", "ZIP_CODE": "19125" }, "geometry": { "type": "Point", "coordinates": [ -75.131356268227066, 39.977601094973906 ] } },
{ "type": "Feature", "properties": { "_id": 10, "OBJECTID": 10, "NAME": "Cecil B. Moore", "ADDRESS": "Cecil B. Moore Ave, btw Broad & 13th Sts, 19122", "OPERATOR": "The Food Trust", "ACCEPT_SNA": "Yes", "ACCEPT_FMN": "Yes", "DISTRIBUTE": "Yes", "ONLY_REDEE": "No", "EBT_MACHIN": "Yes", "DAY_TIME": "Th 2-6", "ZIP_CODE": "19122" }, "geometry": { "type": "Point", "coordinates": [ -75.157915628205998, 39.978708862827879 ] } },
{ "type": "Feature", "properties": { "_id": 11, "OBJECTID": 11, "NAME": "Germantown", "ADDRESS": "6026 Germantown Ave & Walnut Lane, in front of historic", "OPERATOR": "The Food Trust", "ACCEPT_SNA": "Yes", "ACCEPT_FMN": "Yes", "DISTRIBUTE": "Yes", "ONLY_REDEE": "No", "EBT_MACHIN": "Yes", "DAY_TIME": "F 2-6", "ZIP_CODE": "19144" }, "geometry": { "type": "Point", "coordinates": [ -75.178002330876964, 40.039696241842087 ] } },
{ "type": "Feature", "properties": { "_id": 12, "OBJECTID": 12, "NAME": "Fitler Square", "ADDRESS": "23rd St and Pine St, 19103", "OPERATOR": "The Food Trust", "ACCEPT_SNA": "No", "ACCEPT_FMN": "Yes", "DISTRIBUTE": "No", "ONLY_REDEE": "Yes", "EBT_MACHIN": "No", "DAY_TIME": "Sat 9-2", "ZIP_CODE": "19103" }, "geometry": { "type": "Point", "coordinates": [ -75.179322464028402, 39.947332488920857 ] } },
{ "type": "Feature", "properties": { "_id": 13, "OBJECTID": 13, "NAME": "Headhouse", "ADDRESS": "2nd and Lombard Streets, 19147", "OPERATOR": "The Food Trust", "ACCEPT_SNA": "Yes", "ACCEPT_FMN": "Yes", "DISTRIBUTE": "Yes", "ONLY_REDEE": "No", "EBT_MACHIN": "Yes", "DAY_TIME": "Sun 10-2", "ZIP_CODE": "19147" }, "geometry": { "type": "Point", "coordinates": [ -75.145450217553361, 39.942161321536183 ] } },
{ "type": "Feature", "properties": { "_id": 14, "OBJECTID": 14, "NAME": "Overbrook", "ADDRESS": "Lancaster Ave & City Ave, at the Overbrook Presbyterian", "OPERATOR": "The Food Trust", "ACCEPT_SNA": "Yes", "ACCEPT_FMN": "Yes", "DISTRIBUTE": "Yes", "ONLY_REDEE": "No", "EBT_MACHIN": "Yes", "DAY_TIME": "Sat 9-1", "ZIP_CODE": "19151" }, "geometry": { "type": "Point", "coordinates": [ -75.254000640453881, 39.988305892664769 ] } },
{ "type": "Feature", "properties": { "_id": 15, "OBJECTID": 15, "NAME": "Norris Square Park", "ADDRESS": "Diamond & Hancock Sts, 19122", "OPERATOR": "The Food Trust", "ACCEPT_SNA": "Yes", "ACCEPT_FMN": "Yes", "DISTRIBUTE": "Yes", "ONLY_REDEE": "No", "EBT_MACHIN": "Yes", "DAY_TIME": "Sat 10-2", "ZIP_CODE": "19122" }, "geometry": { "type": "Point", "coordinates": [ -75.135781483145408, 39.98201048201291 ] } },
{ "type": "Feature", "properties": { "_id": 16, "OBJECTID": 16, "NAME": "Broad and Snyder", "ADDRESS": "Broad & Snyder Sts, 19148", "OPERATOR": "The Food Trust", "ACCEPT_SNA": "Yes", "ACCEPT_FMN": "Yes", "DISTRIBUTE": "Yes", "ONLY_REDEE": "No", "EBT_MACHIN": "Yes", "DAY_TIME": "Tu 2-7", "ZIP_CODE": "19148" }, "geometry": { "type": "Point", "coordinates": [ -75.169745631492248, 39.924410443236958 ] } },
{ "type": "Feature", "properties": { "_id": 17, "OBJECTID": 17, "NAME": "29th & Wharton (Grays Ferry)", "ADDRESS": "29th and Wharton, 19146", "OPERATOR": "The Food Trust", "ACCEPT_SNA": "Yes", "ACCEPT_FMN": "Yes", "DISTRIBUTE": "Yes", "ONLY_REDEE": "No", "EBT_MACHIN": "Yes", "DAY_TIME": "Tu 2-6", "ZIP_CODE": "19146" }, "geometry": { "type": "Point", "coordinates": [ -75.192035325706271, 39.937280957121814 ] } },
{ "type": "Feature", "properties": { "_id": 18, "OBJECTID": 18, "NAME": "22nd & Tasker (Point Breeze)", "ADDRESS": "22nd St, btwn Tasker and Point Breeze, 19146", "OPERATOR": "The Food Trust", "ACCEPT_SNA": "Yes", "ACCEPT_FMN": "Yes", "DISTRIBUTE": "Yes", "ONLY_REDEE": "No", "EBT_MACHIN": "Yes", "DAY_TIME": "Tu 2-6", "ZIP_CODE": "19146" }, "geometry": { "type": "Point", "coordinates": [ -75.181420298964611, 39.932162878110688 ] } },
{ "type": "Feature", "properties": { "_id": 19, "OBJECTID": 19, "NAME": "Hunting Park", "ADDRESS": "W. Hunting Park Ave & Old York Rd, 19140", "OPERATOR": "The Food Trust", "ACCEPT_SNA": "Yes", "ACCEPT_FMN": "Yes", "DISTRIBUTE": "Yes", "ONLY_REDEE": "No", "EBT_MACHIN": "Yes", "DAY_TIME": "Sat 10-2", "ZIP_CODE": "19140" }, "geometry": { "type": "Point", "coordinates": [ -75.147183991477021, 40.016610613822564 ] } },
{ "type": "Feature", "properties": { "_id": 20, "OBJECTID": 20, "NAME": "Olney Transportation Center", "ADDRESS": "NW corner Broad St & Olney Ave,19141", "OPERATOR": "The Food Trust", "ACCEPT_SNA": "Yes", "ACCEPT_FMN": "Yes", "DISTRIBUTE": "Yes", "ONLY_REDEE": "No", "EBT_MACHIN": "Yes", "DAY_TIME": "T 2-6", "ZIP_CODE": "19141" }, "geometry": { "type": "Point", "coordinates": [ -75.144750140859969, 40.039073939045039 ] } },
{ "type": "Feature", "properties": { "_id": 21, "OBJECTID": 21, "NAME": "Fairhill Square", "ADDRESS": "4th & Lehigh Ave, 19133", "OPERATOR": "The Food Trust", "ACCEPT_SNA": "Yes", "ACCEPT_FMN": "Yes", "DISTRIBUTE": "Yes", "ONLY_REDEE": "No", "EBT_MACHIN": "Yes", "DAY_TIME": "W 1-5", "ZIP_CODE": "19133" }, "geometry": { "type": "Point", "coordinates": [ -75.138352176296252, 39.991852858191514 ] } },
{ "type": "Feature", "properties": { "_id": 22, "OBJECTID": 22, "NAME": "Frankford Transportation Center", "ADDRESS": "Bridge St and Frankford Ave, 19124", "OPERATOR": "The Food Trust", "ACCEPT_SNA": "Yes", "ACCEPT_FMN": "Yes", "DISTRIBUTE": "Yes", "ONLY_REDEE": "No", "EBT_MACHIN": "Yes", "DAY_TIME": "T 2-6", "ZIP_CODE": "19124" }, "geometry": { "type": "Point", "coordinates": [ -75.076841952996574, 40.023258983124272 ] } },
{ "type": "Feature", "properties": { "_id": 23, "OBJECTID": 23, "NAME": "33rd & Diamond (Strawberry Mansio", "ADDRESS": "33rd & Diamond Sts, in front of Mander Playground, 19121", "OPERATOR": "The Food Trust", "ACCEPT_SNA": "Yes", "ACCEPT_FMN": "Yes", "DISTRIBUTE": "Yes", "ONLY_REDEE": "No", "EBT_MACHIN": "Yes", "DAY_TIME": "T 2-6", "ZIP_CODE": "19121" }, "geometry": { "type": "Point", "coordinates": [ -75.187060377152832, 39.988666433916343 ] } },
{ "type": "Feature", "properties": { "_id": 24, "OBJECTID": 24, "NAME": "58th & Chester (Kingsessing)", "ADDRESS": "58th St & Chester Ave, 19143", "OPERATOR": "The Food Trust", "ACCEPT_SNA": "Yes", "ACCEPT_FMN": "Yes", "DISTRIBUTE": "Yes", "ONLY_REDEE": "No", "EBT_MACHIN": "Yes", "DAY_TIME": "W 2-6", "ZIP_CODE": "19143" }, "geometry": { "type": "Point", "coordinates": [ -75.228534273926257, 39.935733758141509 ] } },
{ "type": "Feature", "properties": { "_id": 25, "OBJECTID": 25, "NAME": "Reading Terminal Market", "ADDRESS": "12th St and Arch St, 19107", "OPERATOR": "Farm to City", "ACCEPT_SNA": "No", "ACCEPT_FMN": "Yes", "DISTRIBUTE": "No", "ONLY_REDEE": "No", "EBT_MACHIN": "Yes*", "DAY_TIME": "Mon-Sat 8-6; Sun 9-", "ZIP_CODE": "19107" }, "geometry": { "type": "Point", "coordinates": [ -75.159435631943239, 39.953954719286003 ] } },
{ "type": "Feature", "properties": { "_id": 26, "OBJECTID": 26, "NAME": "Rittenhouse", "ADDRESS": "18th St and Walnut St, 19103", "OPERATOR": "Farm to City", "ACCEPT_SNA": "Yes", "ACCEPT_FMN": "Yes", "DISTRIBUTE": "No", "ONLY_REDEE": "No", "EBT_MACHIN": "Yes*", "DAY_TIME": "Tu 10-1; Sat- 9-3", "ZIP_CODE": "19103" }, "geometry": { "type": "Point", "coordinates": [ -75.17066850897568, 39.950132867019889 ] } },
{ "type": "Feature", "properties": { "_id": 27, "OBJECTID": 27, "NAME": "South and Passyunk", "ADDRESS": "South St and Passyunk Ave, 19147", "OPERATOR": "Farm to City", "ACCEPT_SNA": "Yes", "ACCEPT_FMN": "Yes", "DISTRIBUTE": "No", "ONLY_REDEE": "No", "EBT_MACHIN": "Yes*", "DAY_TIME": "Tu 2:30-7", "ZIP_CODE": "19147" }, "geometry": { "type": "Point", "coordinates": [ -75.150407699705255, 39.941775749878829 ] } },
{ "type": "Feature", "properties": { "_id": 28, "OBJECTID": 28, "NAME": "Mt. Airy", "ADDRESS": "7301 Germantown Ave, 19119", "OPERATOR": "Farm to City", "ACCEPT_SNA": "Yes", "ACCEPT_FMN": "Yes", "DISTRIBUTE": "No", "ONLY_REDEE": "No", "EBT_MACHIN": "Yes*", "DAY_TIME": "Tu 3-7", "ZIP_CODE": "19119" }, "geometry": { "type": "Point", "coordinates": [ -75.192262446671961, 40.061791696791801 ] } },
{ "type": "Feature", "properties": { "_id": 29, "OBJECTID": 29, "NAME": "University Square", "ADDRESS": "36th St and Walnut St, 19104", "OPERATOR": "Farm to City", "ACCEPT_SNA": "Yes", "ACCEPT_FMN": "Yes", "DISTRIBUTE": "No", "ONLY_REDEE": "No", "EBT_MACHIN": "Yes*", "DAY_TIME": "W 10-3", "ZIP_CODE": "19104" }, "geometry": { "type": "Point", "coordinates": [ -75.194787326586962, 39.953143259023335 ] } },
{ "type": "Feature", "properties": { "_id": 30, "OBJECTID": 30, "NAME": "Fountain", "ADDRESS": "11th St and Tasker St, 19147", "OPERATOR": "Farm to City", "ACCEPT_SNA": "Yes", "ACCEPT_FMN": "Yes", "DISTRIBUTE": "No", "ONLY_REDEE": "No", "EBT_MACHIN": "Yes*", "DAY_TIME": "W 3-7", "ZIP_CODE": "19147" }, "geometry": { "type": "Point", "coordinates": [ -75.163091172412123, 39.929793806886259 ] } },
{ "type": "Feature", "properties": { "_id": 31, "OBJECTID": 31, "NAME": "Girard and 27th", "ADDRESS": "27th St and Girard Ave, 19130", "OPERATOR": "Farm to City", "ACCEPT_SNA": "No", "ACCEPT_FMN": "Yes", "DISTRIBUTE": "No", "ONLY_REDEE": "No", "EBT_MACHIN": "No", "DAY_TIME": "Sat 10-1", "ZIP_CODE": "19130" }, "geometry": { "type": "Point", "coordinates": [ -75.180435866549402, 39.97417032433286 ] } },
{ "type": "Feature", "properties": { "_id": 32, "OBJECTID": 32, "NAME": "Suburban Station", "ADDRESS": "16th St and JFK, 19103", "OPERATOR": "Farm to City", "ACCEPT_SNA": "Yes", "ACCEPT_FMN": "Yes", "DISTRIBUTE": "No", "ONLY_REDEE": "No", "EBT_MACHIN": "Yes*", "DAY_TIME": "Th 12-6:30", "ZIP_CODE": "19103" }, "geometry": { "type": "Point", "coordinates": [ -75.164670334779288, 39.962852320372804 ] } },
{ "type": "Feature", "properties": { "_id": 33, "OBJECTID": 33, "NAME": "Jefferson", "ADDRESS": "10th St and Chestnut, 19107", "OPERATOR": "Farm to City", "ACCEPT_SNA": "Yes", "ACCEPT_FMN": "Yes", "DISTRIBUTE": "No", "ONLY_REDEE": "No", "EBT_MACHIN": "Yes*", "DAY_TIME": "Th 11-3:30", "ZIP_CODE": "19107" }, "geometry": { "type": "Point", "coordinates": [ -75.141143779131696, 40.018897970159223 ] } },
{ "type": "Feature", "properties": { "_id": 34, "OBJECTID": 34, "NAME": "East Falls", "ADDRESS": "Under Rt 1 overpass, between Kelly Dr & Ridge Ave, 19129", "OPERATOR": "Farm to City", "ACCEPT_SNA": "Yes", "ACCEPT_FMN": "Yes", "DISTRIBUTE": "No", "ONLY_REDEE": "No", "EBT_MACHIN": "Yes", "DAY_TIME": "Fri 10-2", "ZIP_CODE": "19129" }, "geometry": { "type": "Point", "coordinates": [ -75.206513460163393, 40.014846781702481 ] } },
{ "type": "Feature", "properties": { "_id": 35, "OBJECTID": 35, "NAME": "Chestnut Hill Growers' Market", "ADDRESS": "Winston Rd btw Germantown Ave & Mermaid Lane, 19118", "OPERATOR": "Farm to City", "ACCEPT_SNA": "Yes", "ACCEPT_FMN": "Yes", "DISTRIBUTE": "No", "ONLY_REDEE": "No", "EBT_MACHIN": "Yes*", "DAY_TIME": "Sat 9:30-1:30", "ZIP_CODE": "19118" }, "geometry": { "type": "Point", "coordinates": [ -75.197337377192213, 40.067707880357645 ] } },
{ "type": "Feature", "properties": { "_id": 36, "OBJECTID": 36, "NAME": "Gorgas Park", "ADDRESS": "Ridge Ave at Acorn St,", "OPERATOR": "Farm to City", "ACCEPT_SNA": "Yes", "ACCEPT_FMN": "Yes", "DISTRIBUTE": "No", "ONLY_REDEE": "No", "EBT_MACHIN": "Yes", "DAY_TIME": "Fri 2-6", "ZIP_CODE": null }, "geometry": { "type": "Point", "coordinates": [ -75.221294098343478, 40.037520065443019 ] } },
{ "type": "Feature", "properties": { "_id": 37, "OBJECTID": 37, "NAME": "Dickinson", "ADDRESS": "E. Moyamensing St and Morris St, 19148", "OPERATOR": "Farm to City", "ACCEPT_SNA": "Yes", "ACCEPT_FMN": "Yes", "DISTRIBUTE": "Yes", "ONLY_REDEE": "No", "EBT_MACHIN": "Yes*", "DAY_TIME": "Sun 10-2", "ZIP_CODE": "19148" }, "geometry": { "type": "Point", "coordinates": [ -75.151160604251658, 39.926963249048562 ] } },
{ "type": "Feature", "properties": { "_id": 38, "OBJECTID": 38, "NAME": "IBC Market", "ADDRESS": "Courtyard at 1901 Market St, 19103", "OPERATOR": "Farm to City", "ACCEPT_SNA": "No", "ACCEPT_FMN": "Yes", "DISTRIBUTE": "No", "ONLY_REDEE": "No", "EBT_MACHIN": "No", "DAY_TIME": "Th 11-2", "ZIP_CODE": "19103" }, "geometry": { "type": "Point", "coordinates": [ -75.171641958107344, 39.953375313134515 ] } },
{ "type": "Feature", "properties": { "_id": 39, "OBJECTID": 39, "NAME": "The Porch at 30th St Station", "ADDRESS": "Between south side of 30th St Station & Market St, 19104", "OPERATOR": "Farm to City", "ACCEPT_SNA": "Yes", "ACCEPT_FMN": "Yes", "DISTRIBUTE": "No", "ONLY_REDEE": "No", "EBT_MACHIN": "Yes", "DAY_TIME": "W 11-2", "ZIP_CODE": "19104" }, "geometry": { "type": "Point", "coordinates": [ -75.183335054215661, 39.954820013531283 ] } },
{ "type": "Feature", "properties": { "_id": 40, "OBJECTID": 40, "NAME": "Piazza", "ADDRESS": "2nd St and Germantown, 19123", "OPERATOR": "Independent- Piazza", "ACCEPT_SNA": "No", "ACCEPT_FMN": "Yes", "DISTRIBUTE": "No", "ONLY_REDEE": "No", "EBT_MACHIN": "No", "DAY_TIME": "Sat 10-2", "ZIP_CODE": "19123" }, "geometry": { "type": "Point", "coordinates": [ -75.141453292055033, 39.960631724772206 ] } },
{ "type": "Feature", "properties": { "_id": 41, "OBJECTID": 41, "NAME": "Fair Food Farmstand @ RTM", "ADDRESS": "12th St and Arch St, 19107", "OPERATOR": "Fair Food", "ACCEPT_SNA": "Yes", "ACCEPT_FMN": "No", "DISTRIBUTE": "No", "ONLY_REDEE": "Yes", "EBT_MACHIN": "Yes", "DAY_TIME": "Tue-Sat 8-6; Sun 9-", "ZIP_CODE": "19107" }, "geometry": { "type": "Point", "coordinates": [ -75.159435631943239, 39.953954719286003 ] } },
{ "type": "Feature", "properties": { "_id": 42, "OBJECTID": 42, "NAME": "Mill Creek Farm", "ADDRESS": "Brown St & N 49th St, Philadelphia, PA 19139", "OPERATOR": "Mill Creek Farm", "ACCEPT_SNA": "Yes", "ACCEPT_FMN": "Yes", "DISTRIBUTE": "Yes", "ONLY_REDEE": "No", "EBT_MACHIN": "Yes", "DAY_TIME": "Sat 11-2", "ZIP_CODE": "19139" }, "geometry": { "type": "Point", "coordinates": [ -75.218500585578113, 39.966122036335697 ] } },
{ "type": "Feature", "properties": { "_id": 43, "OBJECTID": 43, "NAME": "Greensgrow Farm", "ADDRESS": "2501 E. Cumberland Ave, 19125", "OPERATOR": "Greensgrow Farm & Nursery", "ACCEPT_SNA": "Yes", "ACCEPT_FMN": "Yes", "DISTRIBUTE": "Yes", "ONLY_REDEE": "No", "EBT_MACHIN": "Yes", "DAY_TIME": "Th 2-7;Sat 10-3", "ZIP_CODE": "19125" }, "geometry": { "type": "Point", "coordinates": [ -75.121571425557917, 39.978415086128713 ] } },
{ "type": "Feature", "properties": { "_id": 44, "OBJECTID": 44, "NAME": "Wadsworth", "ADDRESS": "E. Wadsworth Ave & Bayard St, 19150", "OPERATOR": "John King", "ACCEPT_SNA": "Yes", "ACCEPT_FMN": "Yes", "DISTRIBUTE": "No", "ONLY_REDEE": "No", "EBT_MACHIN": "Yes*", "DAY_TIME": "F 10-2", "ZIP_CODE": "19150" }, "geometry": { "type": "Point", "coordinates": [ -75.173112184094151, 40.079963406879685 ] } },
{ "type": "Feature", "properties": { "_id": 45, "OBJECTID": 45, "NAME": "SHARE Food Program", "ADDRESS": "2901 W. Hunting Park Avenue, Philadelphia, PA", "OPERATOR": "SHARE", "ACCEPT_SNA": "No", "ACCEPT_FMN": "Yes", "DISTRIBUTE": "No", "ONLY_REDEE": "No", "EBT_MACHIN": "No", "DAY_TIME": "Mon-Sat 9-3", "ZIP_CODE": "19129" }, "geometry": { "type": "Point", "coordinates": [ -75.176681852151177, 40.006055443723611 ] } },
{ "type": "Feature", "properties": { "_id": 46, "OBJECTID": 46, "NAME": "Drexel University", "ADDRESS": "33rd and Market St, 19104", "OPERATOR": "John King", "ACCEPT_SNA": "Yes", "ACCEPT_FMN": "Yes", "DISTRIBUTE": "No", "ONLY_REDEE": "No", "EBT_MACHIN": "Yes", "DAY_TIME": "Tu 11-3", "ZIP_CODE": "19104" }, "geometry": { "type": "Point", "coordinates": [ -75.189489542153865, 39.955594206769319 ] } },
{ "type": "Feature", "properties": { "_id": 47, "OBJECTID": 47, "NAME": "Lancaster Ave", "ADDRESS": "38th and Powelton Sts, 19104", "OPERATOR": "John King", "ACCEPT_SNA": "Yes", "ACCEPT_FMN": "Yes", "DISTRIBUTE": "No", "ONLY_REDEE": "No", "EBT_MACHIN": "Yes", "DAY_TIME": "Sat 10-2", "ZIP_CODE": "19104" }, "geometry": { "type": "Point", "coordinates": [ -75.197040101639416, 39.959565985511752 ] } },
{ "type": "Feature", "properties": { "_id": 48, "OBJECTID": 48, "NAME": "Weaver's Way Community Programs F", "ADDRESS": "8424 Germantown Ave, 19118", "OPERATOR": "Weaver's Way", "ACCEPT_SNA": "No", "ACCEPT_FMN": "Yes", "DISTRIBUTE": "No", "ONLY_REDEE": "No", "EBT_MACHIN": "No", "DAY_TIME": "Tu 3-6", "ZIP_CODE": "19118" }, "geometry": { "type": "Point", "coordinates": [ -75.205296807544997, 40.075354851985594 ] } },
{ "type": "Feature", "properties": { "_id": 49, "OBJECTID": 49, "NAME": "Weaver's Way Farmstand- Mt. Airy", "ADDRESS": "Carpenter Lane and Greene St, 19119 (in front of High Po", "OPERATOR": "Weaver's Way\/FTC", "ACCEPT_SNA": "No", "ACCEPT_FMN": "Yes", "DISTRIBUTE": "No", "ONLY_REDEE": "No", "EBT_MACHIN": "Yes", "DAY_TIME": "Th 3-7", "ZIP_CODE": "19119" }, "geometry": { "type": "Point", "coordinates": [ -75.195913567398463, 40.046378534551444 ] } },
{ "type": "Feature", "properties": { "_id": 50, "OBJECTID": 50, "NAME": "Henry Got Crops!", "ADDRESS": "Henry Ave & Cinnaminson St, 19129", "OPERATOR": "Weaver's Way", "ACCEPT_SNA": "No", "ACCEPT_FMN": "Yes", "DISTRIBUTE": "No", "ONLY_REDEE": "No", "EBT_MACHIN": "No", "DAY_TIME": "W 2-5", "ZIP_CODE": "19129" }, "geometry": { "type": "Point", "coordinates": [ -75.219770540477114, 40.049099658576779 ] } },
{ "type": "Feature", "properties": { "_id": 51, "OBJECTID": 51, "NAME": "Walnut Hill Farmstand", "ADDRESS": "4610 Market St, 19139", "OPERATOR": "Enterprise Center\/FTC", "ACCEPT_SNA": "Yes", "ACCEPT_FMN": "Yes", "DISTRIBUTE": "No", "ONLY_REDEE": "No", "EBT_MACHIN": "Yes", "DAY_TIME": "Tu & Fri 3:30-6:30", "ZIP_CODE": "19139" }, "geometry": { "type": "Point", "coordinates": [ -75.213144124810512, 39.958535153527976 ] } },
{ "type": "Feature", "properties": { "_id": 52, "OBJECTID": 52, "NAME": "SEPTA farmstand", "ADDRESS": "12th & Market Sts,19102, concourse level", "OPERATOR": "Enterprise Center\/FTC", "ACCEPT_SNA": "Yes", "ACCEPT_FMN": "No", "DISTRIBUTE": "No", "ONLY_REDEE": "No", "EBT_MACHIN": "Yes", "DAY_TIME": "Wed 11-2 (every oth", "ZIP_CODE": "19102" }, "geometry": { "type": "Point", "coordinates": [ -75.159885411019062, 39.951914338953678 ] } },
{ "type": "Feature", "properties": { "_id": 53, "OBJECTID": 53, "NAME": "Farmstand at Grumblethorpe House", "ADDRESS": "5267 Germantown Ave (at Queen Lane), 19144", "OPERATOR": "Grumblethorpe House", "ACCEPT_SNA": "Yes", "ACCEPT_FMN": "Yes", "DISTRIBUTE": "No", "ONLY_REDEE": "No", "EBT_MACHIN": "Yes", "DAY_TIME": "Sat 10-2", "ZIP_CODE": "19144" }, "geometry": { "type": "Point", "coordinates": [ -75.16854548018749, 40.031957769527352 ] } },
{ "type": "Feature", "properties": { "_id": 54, "OBJECTID": 54, "NAME": "Urban Tree Harvest Farmstand", "ADDRESS": "53rd, between Wyalusing & Poplar Sts, 19131", "OPERATOR": "Urban Tree Connection\/Neigh", "ACCEPT_SNA": "Yes", "ACCEPT_FMN": "Yes", "DISTRIBUTE": "No", "ONLY_REDEE": "No", "EBT_MACHIN": "Yes", "DAY_TIME": "Sat 10-2", "ZIP_CODE": "19131" }, "geometry": { "type": "Point", "coordinates": [ -75.227054949511881, 39.970319390215053 ] } },
{ "type": "Feature", "properties": { "_id": 55, "OBJECTID": 55, "NAME": "Farm 51", "ADDRESS": "51st & Chester, 19143", "OPERATOR": "Farm 51", "ACCEPT_SNA": "Yes", "ACCEPT_FMN": "No", "DISTRIBUTE": "No", "ONLY_REDEE": "No", "EBT_MACHIN": "Yes", "DAY_TIME": "Th 4:30-7", "ZIP_CODE": "19143" }, "geometry": { "type": "Point", "coordinates": [ -75.219037378448476, 39.942407258231178 ] } },
{ "type": "Feature", "properties": { "_id": 56, "OBJECTID": 56, "NAME": "Shar-Nels Farmstand", "ADDRESS": "21st & West Susquehanna Ave, 19132", "OPERATOR": "Nelson Jones", "ACCEPT_SNA": "Yes", "ACCEPT_FMN": "Yes", "DISTRIBUTE": "No", "ONLY_REDEE": "No", "EBT_MACHIN": "Yes", "DAY_TIME": "Th,Fri 10-5; Sat 9-", "ZIP_CODE": "19132" }, "geometry": { "type": "Point", "coordinates": [ -75.16763362487211, 39.987753125859058 ] } },
{ "type": "Feature", "properties": { "_id": 57, "OBJECTID": 57, "NAME": "MFSP Heritage Farm", "ADDRESS": "4300 Monument Rd, 19131", "OPERATOR": "Methodist Family Services", "ACCEPT_SNA": "Yes", "ACCEPT_FMN": "Yes", "DISTRIBUTE": "No", "ONLY_REDEE": "No", "EBT_MACHIN": "Yes", "DAY_TIME": "F 3-6", "ZIP_CODE": "19131" }, "geometry": { "type": "Point", "coordinates": [ -75.216456149861486, 39.998040578109119 ] } },
{ "type": "Feature", "properties": { "_id": 58, "OBJECTID": 58, "NAME": "New Growth Project", "ADDRESS": "27th & Master Sts, 19121", "OPERATOR": "New Growth Project\/ Maratho", "ACCEPT_SNA": "Yes", "ACCEPT_FMN": "No", "DISTRIBUTE": "No", "ONLY_REDEE": "No", "EBT_MACHIN": "Yes", "DAY_TIME": "Sat 9:30-2:30", "ZIP_CODE": "19121" }, "geometry": { "type": "Point", "coordinates": [ -75.179779464221227, 39.977189824655227 ] } },
{ "type": "Feature", "properties": { "_id": 59, "OBJECTID": 59, "NAME": "Francisville", "ADDRESS": "1400 Ridge Ave, 19130", "OPERATOR": "Francisville Neighborhood D", "ACCEPT_SNA": "Yes", "ACCEPT_FMN": "Yes", "DISTRIBUTE": "Yes", "ONLY_REDEE": "No", "EBT_MACHIN": "Yes", "DAY_TIME": "Sat 10-2", "ZIP_CODE": "19130" }, "geometry": { "type": "Point", "coordinates": [ -75.160495734099001, 39.966684833188907 ] } },
{ "type": "Feature", "properties": { "_id": 60, "OBJECTID": 60, "NAME": "Germantown Kitchen Garden", "ADDRESS": "215 E. Penn St,19144", "OPERATOR": "Germantown Kitchen Garden", "ACCEPT_SNA": "No", "ACCEPT_FMN": "Yes", "DISTRIBUTE": "No", "ONLY_REDEE": "No", "EBT_MACHIN": "No", "DAY_TIME": "W 3-6:30", "ZIP_CODE": "19144" }, "geometry": { "type": "Point", "coordinates": [ -75.166781764373738, 40.034691322632533 ] } },
{ "type": "Feature", "properties": { "_id": 61, "OBJECTID": 61, "NAME": "Growing for Good", "ADDRESS": "1552 Wadsworth Ave, 19150", "OPERATOR": "Green Sanctuary Earth Insti", "ACCEPT_SNA": "No", "ACCEPT_FMN": "Yes", "DISTRIBUTE": "No", "ONLY_REDEE": "No", "EBT_MACHIN": "No", "DAY_TIME": "W 11-3", "ZIP_CODE": "19150" }, "geometry": { "type": "Point", "coordinates": [ -75.173041296072256, 40.080033507225458 ] } },
{ "type": "Feature", "properties": { "_id": 62, "OBJECTID": 62, "NAME": "The Schuylkill Center Farmers Mar", "ADDRESS": "Ridge Ave & Port Royal Rd, at the U-haul parking lot, 19", "OPERATOR": "Urban Girls Produce, Schuyl", "ACCEPT_SNA": "No", "ACCEPT_FMN": "Yes", "DISTRIBUTE": "No", "ONLY_REDEE": "No", "EBT_MACHIN": "No", "DAY_TIME": "T 2-6", "ZIP_CODE": "19128" }, "geometry": { "type": "Point", "coordinates": [ -75.238182578772197, 40.05977234479608 ] } }
]
}
