{
"type": "FeatureCollection",
"crs": { "type": "name", "properties": { "name": "urn:ogc:def:crs:OGC:1.3:CRS84" } },
                                                                                
"features": [
{ "type": "Feature", "properties": { "_id": 137, "X": 2705642.331253979820758, "Y": 262746.345551130012609, "STORE_ID": 120069, "OFFICIAL_S": "Santana Deli & Grocery", "UNOFFICIAL": "Santana Deli & Grocery", "STORE_ADDR": "4948 C St", "ZIP_CODE": "19120", "STORE_LEVE": "Healthy Corner Store" }, "geometry": { "type": "Point", "coordinates": [ -75.117518151576135, 40.024435018346978 ] } },
{ "type": "Feature", "properties": { "_id": 138, "X": 2695085.972147679887712, "Y": 223614.524308930005645, "STORE_ID": 148085, "OFFICIAL_S": "Seven & Porter Mini Market", "UNOFFICIAL": "Seven & Porter Mini Mark", "STORE_ADDR": "700 W Porter St", "ZIP_CODE": "19148", "STORE_LEVE": "Healthy Corner Store" }, "geometry": { "type": "Point", "coordinates": [ -75.159293656236031, 39.917917130778157 ] } },
{ "type": "Feature", "properties": { "_id": 139, "X": 2707453.130292410030961, "Y": 252125.947820839995984, "STORE_ID": 134118, "OFFICIAL_S": "Shachary Grocery", "UNOFFICIAL": null, "STORE_ADDR": "1900 E Allegheny Ave", "ZIP_CODE": "19134", "STORE_LEVE": "Healthy Corner Store" }, "geometry": { "type": "Point", "coordinates": [ -75.112187809544139, 39.995145418233157 ] } },
{ "type": "Feature", "properties": { "_id": 140, "X": 2675043.177302230149508, "Y": 224519.845704579987796, "STORE_ID": 142068, "OFFICIAL_S": "Shema's Convenience Store", "UNOFFICIAL": "Shema's Convenience Stor", "STORE_ADDR": "6523 Elmwood Ave", "ZIP_CODE": "19142", "STORE_LEVE": "Healthy Corner Store" }, "geometry": { "type": "Point", "coordinates": [ -75.23062662727024, 39.921992940964188 ] } },
{ "type": "Feature", "properties": { "_id": 141, "X": 2673502.833562859799713, "Y": 225344.514867449994199, "STORE_ID": 142103, "OFFICIAL_S": "Sita T African Grocery Store", "UNOFFICIAL": "Sita T African Grocery S", "STORE_ADDR": "6621 Woodland Ave", "ZIP_CODE": "19142", "STORE_LEVE": "Healthy Corner Store" }, "geometry": { "type": "Point", "coordinates": [ -75.236032487809595, 39.924376327950057 ] } },
{ "type": "Feature", "properties": { "_id": 142, "X": 2692529.526541839819402, "Y": 223485.786270270007662, "STORE_ID": 148089, "OFFICIAL_S": "Sophia Grocery & Deli Llc", "UNOFFICIAL": "Sophia's Grocery & Deli", "STORE_ADDR": "2600 S Iseminger St", "ZIP_CODE": "19148", "STORE_LEVE": "Healthy Corner Store" }, "geometry": { "type": "Point", "coordinates": [ -75.1684171019742, 39.917769361816404 ] } },
{ "type": "Feature", "properties": { "_id": 143, "X": 2695831.62738473014906, "Y": 229002.894108890002826, "STORE_ID": 147045, "OFFICIAL_S": "South Philly Cold Cuts", "UNOFFICIAL": null, "STORE_ADDR": "701 Wharton St", "ZIP_CODE": "19147", "STORE_LEVE": "Healthy Corner Store" }, "geometry": { "type": "Point", "coordinates": [ -75.15607232079212, 39.932642440352339 ] } },
{ "type": "Feature", "properties": { "_id": 144, "X": 2671538.276934850029647, "Y": 237095.133070640004007, "STORE_ID": 139066, "OFFICIAL_S": "Spruce Mini Market", "UNOFFICIAL": "Spruce Super Market", "STORE_ADDR": "284 S 60th St", "ZIP_CODE": "19139", "STORE_LEVE": "Healthy Corner Store" }, "geometry": { "type": "Point", "coordinates": [ -75.241844387596188, 39.956773542923315 ] } },
{ "type": "Feature", "properties": { "_id": 145, "X": 2671538.276934850029647, "Y": 237095.133070640004007, "STORE_ID": 143096, "OFFICIAL_S": "Spruce St Market", "UNOFFICIAL": null, "STORE_ADDR": "284 S 60th St", "ZIP_CODE": "19143", "STORE_LEVE": "Healthy Corner Store" }, "geometry": { "type": "Point", "coordinates": [ -75.241844387596188, 39.956773542923315 ] } },
{ "type": "Feature", "properties": { "_id": 146, "X": 2684959.226039410103112, "Y": 229370.076434229995357, "STORE_ID": 146047, "OFFICIAL_S": "Tasker Food Market", "UNOFFICIAL": "Tasker Food Market", "STORE_ADDR": "1548 S Corlies St", "ZIP_CODE": "19146", "STORE_LEVE": "Healthy Corner Store" }, "geometry": { "type": "Point", "coordinates": [ -75.194787556732194, 39.934519964873076 ] } },
{ "type": "Feature", "properties": { "_id": 147, "X": 2695440.608311950229108, "Y": 276596.537951280013658, "STORE_ID": 138049, "OFFICIAL_S": "Tasty Kake Outlet", "UNOFFICIAL": "Tasty Kake Outlet", "STORE_ADDR": "7155 Ogontz Ave", "ZIP_CODE": "19138", "STORE_LEVE": "Healthy Corner Store" }, "geometry": { "type": "Point", "coordinates": [ -75.152474974364992, 40.063267880623386 ] } },
{ "type": "Feature", "properties": { "_id": 148, "X": 2689935.145667020231485, "Y": 226769.263642330013681, "STORE_ID": 145060, "OFFICIAL_S": "Tc Grocery Llc #1", "UNOFFICIAL": "TC Grocery", "STORE_ADDR": "1939 S 19Th St", "ZIP_CODE": "19145", "STORE_LEVE": "Healthy Corner Store" }, "geometry": { "type": "Point", "coordinates": [ -75.177321359456272, 39.926986891040478 ] } },
{ "type": "Feature", "properties": { "_id": 149, "X": 2704932.984820089768618, "Y": 253259.453307170013431, "STORE_ID": 134125, "OFFICIAL_S": "Thelma Soza T\/A J&V Deli", "UNOFFICIAL": null, "STORE_ADDR": "500 E Willard St", "ZIP_CODE": "19134", "STORE_LEVE": "Healthy Corner Store" }, "geometry": { "type": "Point", "coordinates": [ -75.121058135132486, 39.998461908006981 ] } },
{ "type": "Feature", "properties": { "_id": 150, "X": 2697530.710815680213273, "Y": 223276.673704640008509, "STORE_ID": 148092, "OFFICIAL_S": "Tonys Mkt Antonio Tecce", "UNOFFICIAL": null, "STORE_ADDR": "153 W Porter St", "ZIP_CODE": "19148", "STORE_LEVE": "Healthy Corner Store" }, "geometry": { "type": "Point", "coordinates": [ -75.150617197884557, 39.91679290916283 ] } },
{ "type": "Feature", "properties": { "_id": 151, "X": 2693278.673380409833044, "Y": 252248.837319829995977, "STORE_ID": 132074, "OFFICIAL_S": "Torres Grocery", "UNOFFICIAL": null, "STORE_ADDR": "1915 W Somerset St", "ZIP_CODE": "19132", "STORE_LEVE": "Healthy Corner Store" }, "geometry": { "type": "Point", "coordinates": [ -75.162743737493571, 39.996633551230055 ] } },
{ "type": "Feature", "properties": { "_id": 152, "X": 2697554.432076610159129, "Y": 251511.960668340005213, "STORE_ID": 133077, "OFFICIAL_S": "Torres Grocery", "UNOFFICIAL": "T & R Grocery", "STORE_ADDR": "2756 Germantown Ave", "ZIP_CODE": "19133", "STORE_LEVE": "Healthy Corner Store" }, "geometry": { "type": "Point", "coordinates": [ -75.147566783143887, 39.994266776088971 ] } },
{ "type": "Feature", "properties": { "_id": 153, "X": 2687333.702456070110202, "Y": 251338.861378589994274, "STORE_ID": 132076, "OFFICIAL_S": "Torres Mini Market", "UNOFFICIAL": "Torres Mini Mart", "STORE_ADDR": "2500 N 32nd St", "ZIP_CODE": "19132", "STORE_LEVE": "Healthy Corner Store" }, "geometry": { "type": "Point", "coordinates": [ -75.184047978670165, 39.994612700542959 ] } },
{ "type": "Feature", "properties": { "_id": 154, "X": 2678319.241770959924906, "Y": 236998.57784066000022, "STORE_ID": 139070, "OFFICIAL_S": "Torres Super Market", "UNOFFICIAL": "Torres Supermarket", "STORE_ADDR": "4801 Walnut St", "ZIP_CODE": "19139", "STORE_LEVE": "Healthy Corner Store" }, "geometry": { "type": "Point", "coordinates": [ -75.217675724281534, 39.955977440884737 ] } },
{ "type": "Feature", "properties": { "_id": 155, "X": 2688815.911545650102198, "Y": 242526.315668530005496, "STORE_ID": 130015, "OFFICIAL_S": "Trust Market", "UNOFFICIAL": null, "STORE_ADDR": "2600 Brown St", "ZIP_CODE": "19130", "STORE_LEVE": "Healthy Corner Store" }, "geometry": { "type": "Point", "coordinates": [ -75.179675378546222, 39.970313096364862 ] } },
{ "type": "Feature", "properties": { "_id": 156, "X": 2672294.922161119990051, "Y": 225299.400936360005289, "STORE_ID": 142062, "OFFICIAL_S": "Upland Mini Market", "UNOFFICIAL": null, "STORE_ADDR": "2024 S 68th St", "ZIP_CODE": "19142", "STORE_LEVE": "Healthy Corner Store" }, "geometry": { "type": "Point", "coordinates": [ -75.240342025301018, 39.924346834174827 ] } },
{ "type": "Feature", "properties": { "_id": 157, "X": 2686145.185619200114161, "Y": 230335.043917230010265, "STORE_ID": 146049, "OFFICIAL_S": "Urena Food Mart", "UNOFFICIAL": "Wharton Food Market", "STORE_ADDR": "1300 S 28Th St", "ZIP_CODE": "19146", "STORE_LEVE": "Healthy Corner Store" }, "geometry": { "type": "Point", "coordinates": [ -75.190460545679059, 39.937073547203639 ] } },
{ "type": "Feature", "properties": { "_id": 158, "X": 2713277.431908159982413, "Y": 266552.583861869992688, "STORE_ID": 124090, "OFFICIAL_S": "Valentina Grocery", "UNOFFICIAL": null, "STORE_ADDR": "898 Anchor St", "ZIP_CODE": "19124", "STORE_LEVE": "Healthy Corner Store" }, "geometry": { "type": "Point", "coordinates": [ -75.089858768698051, 40.034250937559769 ] } },
{ "type": "Feature", "properties": { "_id": 159, "X": 2679540.470017950050533, "Y": 234491.258996969991131, "STORE_ID": 143098, "OFFICIAL_S": "Valentino African Food Store", "UNOFFICIAL": "Valentino African Food S", "STORE_ADDR": "4520 Baltimore Ave", "ZIP_CODE": "19143", "STORE_LEVE": "Healthy Corner Store" }, "geometry": { "type": "Point", "coordinates": [ -75.213578152847745, 39.94900117463294 ] } },
{ "type": "Feature", "properties": { "_id": 160, "X": 2714008.326173920184374, "Y": 259481.727210170007311, "STORE_ID": 124091, "OFFICIAL_S": "Valerio Food Market", "UNOFFICIAL": null, "STORE_ADDR": "1500 Sellers St", "ZIP_CODE": "19124", "STORE_LEVE": "Healthy Corner Store" }, "geometry": { "type": "Point", "coordinates": [ -75.088010836893034, 40.014788957121993 ] } },
{ "type": "Feature", "properties": { "_id": 161, "X": 2674310.899185200221837, "Y": 244515.385324230010156, "STORE_ID": 131041, "OFFICIAL_S": "Valerio's Food Market", "UNOFFICIAL": "Valerio's Food Market", "STORE_ADDR": "5455 Lansdowne Ave", "ZIP_CODE": "19131", "STORE_LEVE": "Healthy Corner Store" }, "geometry": { "type": "Point", "coordinates": [ -75.231203309737481, 39.976918213273414 ] } },
{ "type": "Feature", "properties": { "_id": 162, "X": 2700908.9863290800713, "Y": 251752.469114570005331, "STORE_ID": 134112, "OFFICIAL_S": "Vargas Mini Market", "UNOFFICIAL": "Vargas Mini Mart", "STORE_ADDR": "241 E Cambria St", "ZIP_CODE": "19134", "STORE_LEVE": "Healthy Corner Store" }, "geometry": { "type": "Point", "coordinates": [ -75.135573934404022, 39.994654758794162 ] } },
{ "type": "Feature", "properties": { "_id": 163, "X": 2694591.471998590044677, "Y": 223202.527836660010507, "STORE_ID": 148093, "OFFICIAL_S": "Ventura Deli And Mini Market", "UNOFFICIAL": "Ventura Deli and Mini Ma", "STORE_ADDR": "2601 S 8th St", "ZIP_CODE": "19148", "STORE_LEVE": "Healthy Corner Store" }, "geometry": { "type": "Point", "coordinates": [ -75.161098882334514, 39.916826437460365 ] } },
{ "type": "Feature", "properties": { "_id": 164, "X": 2695216.913149429950863, "Y": 227717.914668740006164, "STORE_ID": 148095, "OFFICIAL_S": "Vics Coffee Shop", "UNOFFICIAL": null, "STORE_ADDR": "1600 S 8Th St", "ZIP_CODE": "19148", "STORE_LEVE": "Healthy Corner Store" }, "geometry": { "type": "Point", "coordinates": [ -75.158397801369802, 39.929166065013888 ] } },
{ "type": "Feature", "properties": { "_id": 165, "X": 2713314.476187889929861, "Y": 259266.805527429998619, "STORE_ID": 124092, "OFFICIAL_S": "Yandel Food Market", "UNOFFICIAL": null, "STORE_ADDR": "1362 Unity St", "ZIP_CODE": "19124", "STORE_LEVE": "Healthy Corner Store" }, "geometry": { "type": "Point", "coordinates": [ -75.09050997497333, 40.01425661728053 ] } },
{ "type": "Feature", "properties": { "_id": 166, "X": 2673693.994723429903388, "Y": 236337.23536784001044, "STORE_ID": 139093, "OFFICIAL_S": "Yanley Food Market", "UNOFFICIAL": "Yanidy Food Market", "STORE_ADDR": "5601 Pine St", "ZIP_CODE": "19139", "STORE_LEVE": "Healthy Corner Store" }, "geometry": { "type": "Point", "coordinates": [ -75.234234819900067, 39.954525557250427 ] } },
{ "type": "Feature", "properties": { "_id": 167, "X": 2690698.897972070146352, "Y": 245270.129459149989998, "STORE_ID": 121065, "OFFICIAL_S": "Yasmin Food Market", "UNOFFICIAL": "Yasmin Food Market", "STORE_ADDR": "2236 W Jefferson St", "ZIP_CODE": "19121", "STORE_LEVE": "Healthy Corner Store" }, "geometry": { "type": "Point", "coordinates": [ -75.17267441161691, 39.97769137731413 ] } },
{ "type": "Feature", "properties": { "_id": 168, "X": 2689136.208966699894518, "Y": 229344.433962749986676, "STORE_ID": 146018, "OFFICIAL_S": "Young's Harvest Market", "UNOFFICIAL": "Harvest Supermarket", "STORE_ADDR": "1426 Point Breeze Ave", "ZIP_CODE": "19146", "STORE_LEVE": "Healthy Corner Store" }, "geometry": { "type": "Point", "coordinates": [ -75.179901623257948, 39.934116914055799 ] } },
{ "type": "Feature", "properties": { "_id": 169, "X": 2697798.620955049991608, "Y": 242167.409848849987611, "STORE_ID": 123001, "OFFICIAL_S": "1022 Marshall Enterprises, Inc", "UNOFFICIAL": "1022 Marshall Enterprise", "STORE_ADDR": "1022 N Marshall St", "ZIP_CODE": "19123", "STORE_LEVE": "Healthy Corner Store" }, "geometry": { "type": "Point", "coordinates": [ -75.14767827660971, 39.968606216999135 ] } },
{ "type": "Feature", "properties": { "_id": 170, "X": 2691365.180045609828085, "Y": 226439.375500880007166, "STORE_ID": 145002, "OFFICIAL_S": "16th Street Food Market", "UNOFFICIAL": "16th St Food Market", "STORE_ADDR": "1551 Mckean St", "ZIP_CODE": "19145", "STORE_LEVE": "Healthy Corner Store" }, "geometry": { "type": "Point", "coordinates": [ -75.172258997528544, 39.92596723389962 ] } },
{ "type": "Feature", "properties": { "_id": 171, "X": 2689356.357892279978842, "Y": 228989.524156600004062, "STORE_ID": 146001, "OFFICIAL_S": "21st Food Market & Deli", "UNOFFICIAL": "21st Food Market", "STORE_ADDR": "2050 Dickinson St", "ZIP_CODE": "19146", "STORE_LEVE": "Healthy Corner Store" }, "geometry": { "type": "Point", "coordinates": [ -75.179153758407267, 39.933125466480362 ] } },
{ "type": "Feature", "properties": { "_id": 172, "X": 2690451.332212809938937, "Y": 254326.402321039990056, "STORE_ID": 132055, "OFFICIAL_S": "26th and Clearfield Mini Mart", "UNOFFICIAL": "26th and Clearfield Mini", "STORE_ADDR": "3101 N 26th St", "ZIP_CODE": "19132", "STORE_LEVE": "Healthy Corner Store" }, "geometry": { "type": "Point", "coordinates": [ -75.172614424619525, 40.002561201595228 ] } },
{ "type": "Feature", "properties": { "_id": 173, "X": 2704364.339408420026302, "Y": 250523.061700549995294, "STORE_ID": 134001, "OFFICIAL_S": "2764 Kensington Inc", "UNOFFICIAL": "2764 Kensington Inc", "STORE_ADDR": "2764-72 Kensington Ave", "ZIP_CODE": "19134", "STORE_LEVE": "Healthy Corner Store" }, "geometry": { "type": "Point", "coordinates": [ -75.123377361274677, 39.990999945894607 ] } },
{ "type": "Feature", "properties": { "_id": 174, "X": 2685644.02459537005052, "Y": 226767.46079273999203, "STORE_ID": 145025, "OFFICIAL_S": "28 & Snyder Supermarket", "UNOFFICIAL": null, "STORE_ADDR": "2800 Snyder Ave", "ZIP_CODE": "19145", "STORE_LEVE": "Healthy Corner Store" }, "geometry": { "type": "Point", "coordinates": [ -75.192615347397535, 39.927324040471959 ] } },
{ "type": "Feature", "properties": { "_id": 175, "X": 2675129.143678199965507, "Y": 236339.066176349995658, "STORE_ID": 143028, "OFFICIAL_S": "3 Sisters #2", "UNOFFICIAL": "Delancey Food Market", "STORE_ADDR": "5356 Delancey Street", "ZIP_CODE": "19143", "STORE_LEVE": "Healthy Corner Store" }, "geometry": { "type": "Point", "coordinates": [ -75.229117546887153, 39.954418251056275 ] } },
{ "type": "Feature", "properties": { "_id": 176, "X": 2676963.266066070180386, "Y": 239462.367513439996401, "STORE_ID": 139003, "OFFICIAL_S": "51 Race Food Market Inc", "UNOFFICIAL": "51 Race Food Market", "STORE_ADDR": "5101 Race St", "ZIP_CODE": "19139", "STORE_LEVE": "Healthy Corner Store" }, "geometry": { "type": "Point", "coordinates": [ -75.222259087779619, 39.962844702791472 ] } },
{ "type": "Feature", "properties": { "_id": 177, "X": 2678141.46434920001775, "Y": 231360.950687809992814, "STORE_ID": 143003, "OFFICIAL_S": "52nd Street Food Market", "UNOFFICIAL": "52nd St Market", "STORE_ADDR": "1401 S 52nd St", "ZIP_CODE": "19143", "STORE_LEVE": "Healthy Corner Store" }, "geometry": { "type": "Point", "coordinates": [ -75.218885903175405, 39.940521792773787 ] } },
{ "type": "Feature", "properties": { "_id": 178, "X": 2672597.306829949840903, "Y": 236672.700485070003197, "STORE_ID": 143004, "OFFICIAL_S": "58th St. & Delancey Food Market", "UNOFFICIAL": "58th & Delancey Food Mar", "STORE_ADDR": "5800 Delancey St", "ZIP_CODE": "19143", "STORE_LEVE": "Healthy Corner Store" }, "geometry": { "type": "Point", "coordinates": [ -75.238111089002999, 39.955531763145338 ] } },
{ "type": "Feature", "properties": { "_id": 179, "X": 2690228.432966169901192, "Y": 230478.217626239988022, "STORE_ID": 146006, "OFFICIAL_S": "A & H Food Market", "UNOFFICIAL": "A & H Food Market", "STORE_ADDR": "1946 Federal St", "ZIP_CODE": "19146", "STORE_LEVE": "Healthy Corner Store" }, "geometry": { "type": "Point", "coordinates": [ -75.175890658561357, 39.937140659475283 ] } },
{ "type": "Feature", "properties": { "_id": 180, "X": 2692439.928605429828167, "Y": 223977.93882432000828, "STORE_ID": 148004, "OFFICIAL_S": "A&E Grocery", "UNOFFICIAL": "A & E Grocery", "STORE_ADDR": "1300 W Porter St", "ZIP_CODE": "19148", "STORE_LEVE": "Healthy Corner Store" }, "geometry": { "type": "Point", "coordinates": [ -75.168685110389291, 39.919126994669121 ] } },
{ "type": "Feature", "properties": { "_id": 181, "X": 2720712.83462148020044, "Y": 274359.914203400025144, "STORE_ID": 152014, "OFFICIAL_S": "Acai Berry Caf", "UNOFFICIAL": "Acai Berry Caf", "STORE_ADDR": "7534 Castor Ave", "ZIP_CODE": "19152", "STORE_LEVE": "Healthy Corner Store" }, "geometry": { "type": "Point", "coordinates": [ -75.062469485346654, 40.055055246706743 ] } },
{ "type": "Feature", "properties": { "_id": 182, "X": 2694429.167235100176185, "Y": 250728.039001180004561, "STORE_ID": 132006, "OFFICIAL_S": "Agramonte Grocery Store", "UNOFFICIAL": "Agramonte Grocery Store", "STORE_ADDR": "2568 N Bancroft St", "ZIP_CODE": "19132", "STORE_LEVE": "Healthy Corner Store" }, "geometry": { "type": "Point", "coordinates": [ -75.158798397700878, 39.99236798372138 ] } },
{ "type": "Feature", "properties": { "_id": 183, "X": 2705701.883232510183007, "Y": 261387.274218250007834, "STORE_ID": 120032, "OFFICIAL_S": "Al Aqsa Halal", "UNOFFICIAL": "Al Aqsa Halal", "STORE_ADDR": "419 East Wyoming Ave", "ZIP_CODE": "19120", "STORE_LEVE": "Healthy Corner Store" }, "geometry": { "type": "Point", "coordinates": [ -75.117450245423001, 40.020700990535687 ] } },
{ "type": "Feature", "properties": { "_id": 184, "X": 2675977.451146279927343, "Y": 225423.964174480002839, "STORE_ID": 142004, "OFFICIAL_S": "Aladdin Food Market", "UNOFFICIAL": "Aladdin Food Market", "STORE_ADDR": "6247 Elmwood Ave", "ZIP_CODE": "19142", "STORE_LEVE": "Healthy Corner Store" }, "geometry": { "type": "Point", "coordinates": [ -75.227204956908494, 39.924400643419538 ] } },
{ "type": "Feature", "properties": { "_id": 185, "X": 2688218.196918149944395, "Y": 251203.560369870014256, "STORE_ID": 132007, "OFFICIAL_S": "Alejandro Grocery Store", "UNOFFICIAL": "Alejandro Grocery", "STORE_ADDR": "3000 W Cumberland St", "ZIP_CODE": "19132", "STORE_LEVE": "Healthy Corner Store" }, "geometry": { "type": "Point", "coordinates": [ -75.18090650951072, 39.994170857746425 ] } },
{ "type": "Feature", "properties": { "_id": 186, "X": 2706593.817131849937141, "Y": 253119.34518843999831, "STORE_ID": 134004, "OFFICIAL_S": "Almanzar Mini Market", "UNOFFICIAL": "Almanzar Mini Market", "STORE_ADDR": "800 E Willard St", "ZIP_CODE": "19134", "STORE_LEVE": "Healthy Corner Store" }, "geometry": { "type": "Point", "coordinates": [ -75.115147675557594, 39.997941609948832 ] } },
{ "type": "Feature", "properties": { "_id": 187, "X": 2709912.135856819804758, "Y": 269771.324776560009923, "STORE_ID": 120014, "OFFICIAL_S": "Almonte Mini Market", "UNOFFICIAL": "Almonte Mini Market", "STORE_ADDR": "546 Van Kirk St", "ZIP_CODE": "19120", "STORE_LEVE": "Healthy Corner Store" }, "geometry": { "type": "Point", "coordinates": [ -75.101526786439806, 40.043360389638345 ] } },
{ "type": "Feature", "properties": { "_id": 188, "X": 2679300.786442849785089, "Y": 234454.650540060014464, "STORE_ID": 143009, "OFFICIAL_S": "Amin Gas & Mini Mart", "UNOFFICIAL": "Amin Gas & Mini Market", "STORE_ADDR": "4548 Baltimore Ave", "ZIP_CODE": "19143", "STORE_LEVE": "Healthy Corner Store" }, "geometry": { "type": "Point", "coordinates": [ -75.214436430044287, 39.948919613032174 ] } },
{ "type": "Feature", "properties": { "_id": 189, "X": 2702025.646018859930336, "Y": 253908.746031049988233, "STORE_ID": 140014, "OFFICIAL_S": "Angel Deli Grocery", "UNOFFICIAL": "Caribe Grocery", "STORE_ADDR": "3300 Mutter St", "ZIP_CODE": "19140", "STORE_LEVE": "Healthy Corner Store" }, "geometry": { "type": "Point", "coordinates": [ -75.131362040965527, 40.000480595085492 ] } },
{ "type": "Feature", "properties": { "_id": 190, "X": 2671510.859749670140445, "Y": 236890.580819599999813, "STORE_ID": 143011, "OFFICIAL_S": "Angelo's Food Market", "UNOFFICIAL": "Twins Mini Market", "STORE_ADDR": "309 S 60th St", "ZIP_CODE": "19143", "STORE_LEVE": "Healthy Corner Store" }, "geometry": { "type": "Point", "coordinates": [ -75.241962867981627, 39.956214385023827 ] } },
{ "type": "Feature", "properties": { "_id": 191, "X": 2716936.002304989844561, "Y": 256397.351951980002923, "STORE_ID": 137001, "OFFICIAL_S": "Angel's Deli", "UNOFFICIAL": "Angel's Deli", "STORE_ADDR": "2350 Orthodox St", "ZIP_CODE": "19137", "STORE_LEVE": "Healthy Corner Store" }, "geometry": { "type": "Point", "coordinates": [ -75.077896480207741, 40.00608315666026 ] } },
{ "type": "Feature", "properties": { "_id": 192, "X": 2702585.345017060171813, "Y": 244163.694774159986991, "STORE_ID": 125002, "OFFICIAL_S": "Annes Place", "UNOFFICIAL": "Anne's Place", "STORE_ADDR": "460 Belgrade St", "ZIP_CODE": "19125", "STORE_LEVE": "Healthy Corner Store" }, "geometry": { "type": "Point", "coordinates": [ -75.130396783107344, 39.973695434648349 ] } },
{ "type": "Feature", "properties": { "_id": 193, "X": 2688504.380004480015486, "Y": 230425.590908810001565, "STORE_ID": 146012, "OFFICIAL_S": "Arheny Food Market", "UNOFFICIAL": "Arheny Food Market", "STORE_ADDR": "1240 S 23rd St", "ZIP_CODE": "19146", "STORE_LEVE": "Healthy Corner Store" }, "geometry": { "type": "Point", "coordinates": [ -75.182041635066014, 39.93713401999134 ] } },
{ "type": "Feature", "properties": { "_id": 194, "X": 2710935.943358330056071, "Y": 253222.796859430003678, "STORE_ID": 134009, "OFFICIAL_S": "Ariel Grocery Inc", "UNOFFICIAL": "Ariel Grocery", "STORE_ADDR": "2090 E Pacific St", "ZIP_CODE": "19134", "STORE_LEVE": "Healthy Corner Store" }, "geometry": { "type": "Point", "coordinates": [ -75.099645322404413, 39.997868842691631 ] } },
{ "type": "Feature", "properties": { "_id": 195, "X": 2698124.501965629868209, "Y": 250987.891070879995823, "STORE_ID": 133003, "OFFICIAL_S": "AVP Grocery Store", "UNOFFICIAL": "Santos Grocery", "STORE_ADDR": "811 W Lehigh Ave", "ZIP_CODE": "19133", "STORE_LEVE": "Healthy Corner Store" }, "geometry": { "type": "Point", "coordinates": [ -75.145588194401469, 39.992782638991244 ] } },
{ "type": "Feature", "properties": { "_id": 196, "X": 2677896.551411129999906, "Y": 231870.390823340014322, "STORE_ID": 143040, "OFFICIAL_S": "Azcona Supermarket", "UNOFFICIAL": "Good Neighbor Market", "STORE_ADDR": "5131 Chester Ave", "ZIP_CODE": "19143", "STORE_LEVE": "Healthy Corner Store" }, "geometry": { "type": "Point", "coordinates": [ -75.219706920752159, 39.941938959760186 ] } },
{ "type": "Feature", "properties": { "_id": 197, "X": 2693207.554011510219425, "Y": 250531.237415820010938, "STORE_ID": 132010, "OFFICIAL_S": "Baez Grocery", "UNOFFICIAL": "19th St. Grocery", "STORE_ADDR": "2500 N 19Th St", "ZIP_CODE": "19132", "STORE_LEVE": "Healthy Corner Store" }, "geometry": { "type": "Point", "coordinates": [ -75.163177017090078, 39.99192627085133 ] } },
{ "type": "Feature", "properties": { "_id": 198, "X": 2689088.587805230170488, "Y": 225113.326655240001855, "STORE_ID": 145049, "OFFICIAL_S": "Barbaro, Inc", "UNOFFICIAL": "Rocco's Market", "STORE_ADDR": "2355 S Woodstock St", "ZIP_CODE": "19145", "STORE_LEVE": "Healthy Corner Store" }, "geometry": { "type": "Point", "coordinates": [ -75.180510295288045, 39.922510708566485 ] } },
{ "type": "Feature", "properties": { "_id": 199, "X": 2693610.009951829910278, "Y": 222609.654022119997535, "STORE_ID": 148010, "OFFICIAL_S": "Bettys Grocery", "UNOFFICIAL": "Betty's Grocery", "STORE_ADDR": "2747 S 10Th St", "ZIP_CODE": "19148", "STORE_LEVE": "Healthy Corner Store" }, "geometry": { "type": "Point", "coordinates": [ -75.164658182130211, 39.915278539388716 ] } },
{ "type": "Feature", "properties": { "_id": 200, "X": 2690298.586822099983692, "Y": 253229.3585368799977, "STORE_ID": 132062, "OFFICIAL_S": "Breton Grocery", "UNOFFICIAL": "Breton Grocery", "STORE_ADDR": "2900 N 26Th St", "ZIP_CODE": "19132", "STORE_LEVE": "Healthy Corner Store" }, "geometry": { "type": "Point", "coordinates": [ -75.173273661832397, 39.999563199347563 ] } },
{ "type": "Feature", "properties": { "_id": 201, "X": 2695699.971619879826903, "Y": 257619.014641899993876, "STORE_ID": 140012, "OFFICIAL_S": "Brother's Grocery", "UNOFFICIAL": "Lopez Grocery", "STORE_ADDR": "1540 W Butler St", "ZIP_CODE": "19140", "STORE_LEVE": "Healthy Corner Store" }, "geometry": { "type": "Point", "coordinates": [ -75.153541894575099, 40.011173942642159 ] } },
{ "type": "Feature", "properties": { "_id": 202, "X": 2676865.931121080182493, "Y": 225795.775002279988257, "STORE_ID": 142009, "OFFICIAL_S": "Buist Food Market", "UNOFFICIAL": "Buist Food Market", "STORE_ADDR": "2561 S 61St St", "ZIP_CODE": "19142", "STORE_LEVE": "Healthy Corner Store" }, "geometry": { "type": "Point", "coordinates": [ -75.224000538183887, 39.925351184833055 ] } },
{ "type": "Feature", "properties": { "_id": 203, "X": 2711337.952064100187272, "Y": 271861.488987709977664, "STORE_ID": 111004, "OFFICIAL_S": "C & R Deli Grocery", "UNOFFICIAL": "C R Grocery", "STORE_ADDR": "6351 Rising Sun Ave", "ZIP_CODE": "19111", "STORE_LEVE": "Healthy Corner Store" }, "geometry": { "type": "Point", "coordinates": [ -75.096212243636387, 40.048978065308823 ] } },
{ "type": "Feature", "properties": { "_id": 204, "X": 2706194.487605089787394, "Y": 249793.579949959996156, "STORE_ID": 134018, "OFFICIAL_S": "Cambria Mini Market", "UNOFFICIAL": "Cambria Mini Market", "STORE_ADDR": "2085 E Cambria St", "ZIP_CODE": "19134", "STORE_LEVE": "Healthy Corner Store" }, "geometry": { "type": "Point", "coordinates": [ -75.116926238332283, 39.988848728364033 ] } },
{ "type": "Feature", "properties": { "_id": 205, "X": 2701554.82479939982295, "Y": 273897.42579124000622, "STORE_ID": 126017, "OFFICIAL_S": "Candy 4 Days", "UNOFFICIAL": "Candy 4 Days", "STORE_ADDR": "712 Oak Lane", "ZIP_CODE": "19126", "STORE_LEVE": "Healthy Corner Store" }, "geometry": { "type": "Point", "coordinates": [ -75.130926184338122, 40.05536608610808 ] } },
{ "type": "Feature", "properties": { "_id": 206, "X": 2701596.208689189981669, "Y": 253972.005281760008074, "STORE_ID": 140013, "OFFICIAL_S": "Caribe Grocery", "UNOFFICIAL": "Caribe Grocery", "STORE_ADDR": "3301 N 2Nd St", "ZIP_CODE": "19140", "STORE_LEVE": "Healthy Corner Store" }, "geometry": { "type": "Point", "coordinates": [ -75.132887515517751, 40.00068911372108 ] } },
{ "type": "Feature", "properties": { "_id": 207, "X": 2706426.406998769845814, "Y": 252698.899558800010709, "STORE_ID": 134015, "OFFICIAL_S": "Carmen  Grocery", "UNOFFICIAL": "Carmen Grocery", "STORE_ADDR": "767 East Allegheny Ave", "ZIP_CODE": "19134", "STORE_LEVE": "Healthy Corner Store" }, "geometry": { "type": "Point", "coordinates": [ -75.115789699785154, 39.996801656674563 ] } },
{ "type": "Feature", "properties": { "_id": 208, "X": 2688082.412198670208454, "Y": 248751.619585740001639, "STORE_ID": 121075, "OFFICIAL_S": "Carolina Market", "UNOFFICIAL": "Carolina Market", "STORE_ADDR": "2952 Ridge Ave", "ZIP_CODE": "19121", "STORE_LEVE": "Healthy Corner Store" }, "geometry": { "type": "Point", "coordinates": [ -75.181645405030167, 39.987453667382766 ] } },
{ "type": "Feature", "properties": { "_id": 209, "X": 2707608.610320489853621, "Y": 252983.670668700011447, "STORE_ID": 134016, "OFFICIAL_S": "Casablanca Grocery", "UNOFFICIAL": "Casablanca Grocery", "STORE_ADDR": "3257 Kensington Ave", "ZIP_CODE": "19134", "STORE_LEVE": "Healthy Corner Store" }, "geometry": { "type": "Point", "coordinates": [ -75.111541679825706, 39.997486173348584 ] } },
{ "type": "Feature", "properties": { "_id": 210, "X": 2704929.89283043006435, "Y": 262074.791814210009761, "STORE_ID": 120015, "OFFICIAL_S": "Castillo's Grocery", "UNOFFICIAL": "Castillo's Deli Grocery", "STORE_ADDR": "4800 B St", "ZIP_CODE": "19120", "STORE_LEVE": "Healthy Corner Store" }, "geometry": { "type": "Point", "coordinates": [ -75.120132303850752, 40.022650602484156 ] } },
{ "type": "Feature", "properties": { "_id": 211, "X": 2710891.646668530069292, "Y": 256651.173924900009297, "STORE_ID": 124018, "OFFICIAL_S": "Chevere Mini Market #1", "UNOFFICIAL": "KE&J Mini Market", "STORE_ADDR": "1443 E Luzerne St", "ZIP_CODE": "19124", "STORE_LEVE": "Healthy Corner Store" }, "geometry": { "type": "Point", "coordinates": [ -75.09943613925978, 40.007279564803724 ] } },
{ "type": "Feature", "properties": { "_id": 212, "X": 2720020.257602950092405, "Y": 272736.127962540020235, "STORE_ID": 149005, "OFFICIAL_S": "Chopan Food Market", "UNOFFICIAL": "Chopan's Food Market", "STORE_ADDR": "2028 Cottman Ave", "ZIP_CODE": "19149", "STORE_LEVE": "Healthy Corner Store" }, "geometry": { "type": "Point", "coordinates": [ -75.06511874778036, 40.050657649142231 ] } },
{ "type": "Feature", "properties": { "_id": 213, "X": 2701285.589537229854614, "Y": 251701.308421830006409, "STORE_ID": 133009, "OFFICIAL_S": "Chris Grocery Store", "UNOFFICIAL": "Raquel Grocery", "STORE_ADDR": "201 West Cambria St", "ZIP_CODE": "19133", "STORE_LEVE": "Healthy Corner Store" }, "geometry": { "type": "Point", "coordinates": [ -75.134235795554105, 39.994483768687545 ] } },
{ "type": "Feature", "properties": { "_id": 214, "X": 2682635.079239259939641, "Y": 238750.673475899995537, "STORE_ID": 104023, "OFFICIAL_S": "City Food Market", "UNOFFICIAL": "City Food Market", "STORE_ADDR": "401 N 40th St", "ZIP_CODE": "19104", "STORE_LEVE": "Healthy Corner Store" }, "geometry": { "type": "Point", "coordinates": [ -75.202106931403478, 39.960444448953218 ] } },
{ "type": "Feature", "properties": { "_id": 215, "X": 2676057.652030180208385, "Y": 231594.426036649994785, "STORE_ID": 143024, "OFFICIAL_S": "Cjs Mini Market", "UNOFFICIAL": "CJ Mini Mart", "STORE_ADDR": "5456 Warrington Ave", "ZIP_CODE": "19143", "STORE_LEVE": "Healthy Corner Store" }, "geometry": { "type": "Point", "coordinates": [ -75.226290498791187, 39.941326139291256 ] } },
{ "type": "Feature", "properties": { "_id": 216, "X": 2708423.876126470044255, "Y": 252844.707506120001199, "STORE_ID": 134020, "OFFICIAL_S": "Cleotilde Grocery", "UNOFFICIAL": "Grocery Benny's", "STORE_ADDR": "3339 Jasper St", "ZIP_CODE": "19134", "STORE_LEVE": "Healthy Corner Store" }, "geometry": { "type": "Point", "coordinates": [ -75.108647923912272, 39.997037981885462 ] } },
{ "type": "Feature", "properties": { "_id": 217, "X": 2694079.37238331977278, "Y": 272467.303987059975043, "STORE_ID": 138046, "OFFICIAL_S": "CNA Tropical Market", "UNOFFICIAL": null, "STORE_ADDR": "6402 Wister St", "ZIP_CODE": "19138", "STORE_LEVE": "Healthy Corner Store" }, "geometry": { "type": "Point", "coordinates": [ -75.157769160102958, 40.052047335621644 ] } },
{ "type": "Feature", "properties": { "_id": 218, "X": 2695387.17025553015992, "Y": 269445.073160049971193, "STORE_ID": 140022, "OFFICIAL_S": "Collado Grocery", "UNOFFICIAL": "Jhonny's Food Mart", "STORE_ADDR": "1956 Nedro Avenue", "ZIP_CODE": "19141", "STORE_LEVE": "Healthy Corner Store" }, "geometry": { "type": "Point", "coordinates": [ -75.15341694302937, 40.043649088066921 ] } },
{ "type": "Feature", "properties": { "_id": 219, "X": 2674716.95816635992378, "Y": 247287.447295260004466, "STORE_ID": 131008, "OFFICIAL_S": "Community Mini Market", "UNOFFICIAL": null, "STORE_ADDR": "1801 Georges Ln", "ZIP_CODE": "19131", "STORE_LEVE": "Healthy Corner Store" }, "geometry": { "type": "Point", "coordinates": [ -75.229472741173666, 39.984492969366997 ] } },
{ "type": "Feature", "properties": { "_id": 1, "X": 2693670.45527218002826, "Y": 223058.14028598999721, "STORE_ID": 148128, "OFFICIAL_S": "10th Ave Sandwiches", "UNOFFICIAL": null, "STORE_ADDR": "2654 S 10th St", "ZIP_CODE": "19148", "STORE_LEVE": "Healthy Corner Store" }, "geometry": { "type": "Point", "coordinates": [ -75.164395986460079, 39.916504306478153 ] } },
{ "type": "Feature", "properties": { "_id": 2, "X": 2706197.281274260021746, "Y": 266302.461209599976428, "STORE_ID": 120001, "OFFICIAL_S": "1111 M&S Gas, Inc.", "UNOFFICIAL": null, "STORE_ADDR": "5570 Rising Sun Ave", "ZIP_CODE": "19120", "STORE_LEVE": "Healthy Corner Store" }, "geometry": { "type": "Point", "coordinates": [ -75.115158699473298, 40.034147211304528 ] } },
{ "type": "Feature", "properties": { "_id": 3, "X": 2689923.01982339983806, "Y": 252297.223354640009347, "STORE_ID": 132001, "OFFICIAL_S": "27th Food Market", "UNOFFICIAL": "Martinez Grocery", "STORE_ADDR": "2655 W Sterner St", "ZIP_CODE": "19132", "STORE_LEVE": "Healthy Corner Store" }, "geometry": { "type": "Point", "coordinates": [ -75.174710636884157, 39.997035532118183 ] } },
{ "type": "Feature", "properties": { "_id": 4, "X": 2674987.372460220009089, "Y": 241703.160290280007757, "STORE_ID": 131002, "OFFICIAL_S": "54 & Wyalusing Food Market", "UNOFFICIAL": null, "STORE_ADDR": "5414 Wyalusing Ave", "ZIP_CODE": "19131", "STORE_LEVE": "Healthy Corner Store" }, "geometry": { "type": "Point", "coordinates": [ -75.229076924360015, 39.969148468697355 ] } },
{ "type": "Feature", "properties": { "_id": 5, "X": 2674708.222537260036916, "Y": 239758.919438899989473, "STORE_ID": 139005, "OFFICIAL_S": "55th Street Food Market", "UNOFFICIAL": null, "STORE_ADDR": "5501 Race Street", "ZIP_CODE": "19139", "STORE_LEVE": "Healthy Corner Store" }, "geometry": { "type": "Point", "coordinates": [ -75.230270350699854, 39.963835325153461 ] } },
{ "type": "Feature", "properties": { "_id": 6, "X": 2673047.282297410070896, "Y": 226749.751777069992386, "STORE_ID": 142001, "OFFICIAL_S": "8 Brothers Supermarket", "UNOFFICIAL": "8 Brother Food Market", "STORE_ADDR": "1930 S 65Th St", "ZIP_CODE": "19142", "STORE_LEVE": "Healthy Corner Store" }, "geometry": { "type": "Point", "coordinates": [ -75.237513535904796, 39.928267903724738 ] } },
{ "type": "Feature", "properties": { "_id": 7, "X": 2690100.600556270219386, "Y": 247534.348430749989348, "STORE_ID": 121082, "OFFICIAL_S": "A & L Mini Market", "UNOFFICIAL": null, "STORE_ADDR": "2451 W Berks St", "ZIP_CODE": "19121", "STORE_LEVE": "Healthy Corner Store" }, "geometry": { "type": "Point", "coordinates": [ -75.174572775512502, 39.983952201440061 ] } },
{ "type": "Feature", "properties": { "_id": 8, "X": 2703470.681754730176181, "Y": 248732.273659480008064, "STORE_ID": 125001, "OFFICIAL_S": "A&M Mini Market Almonte II", "UNOFFICIAL": null, "STORE_ADDR": "2533 Emerald St", "ZIP_CODE": "19125", "STORE_LEVE": "Healthy Corner Store" }, "geometry": { "type": "Point", "coordinates": [ -75.126755158746079, 39.986159091507183 ] } },
{ "type": "Feature", "properties": { "_id": 9, "X": 2715665.553739510010928, "Y": 267048.07419769000262, "STORE_ID": 149042, "OFFICIAL_S": "Abreu Super Deli", "UNOFFICIAL": null, "STORE_ADDR": "6059 Castor Ave", "ZIP_CODE": "19149", "STORE_LEVE": "Healthy Corner Store" }, "geometry": { "type": "Point", "coordinates": [ -75.081280769702175, 40.035412737322503 ] } },
{ "type": "Feature", "properties": { "_id": 10, "X": 2674305.629606939852238, "Y": 236648.047092299995711, "STORE_ID": 139031, "OFFICIAL_S": "AD Eight Brothers", "UNOFFICIAL": "AD Eight Brothers", "STORE_ADDR": "5503 Spruce St", "ZIP_CODE": "19139", "STORE_LEVE": "Healthy Corner Store" }, "geometry": { "type": "Point", "coordinates": [ -75.232022400263304, 39.955330582518101 ] } },
{ "type": "Feature", "properties": { "_id": 11, "X": 2691535.707363559864461, "Y": 233134.45374332999927, "STORE_ID": 146008, "OFFICIAL_S": "Adabel Deli Inc", "UNOFFICIAL": "Adam's Deli & Food Marke", "STORE_ADDR": "1739 South St", "ZIP_CODE": "19146", "STORE_LEVE": "Healthy Corner Store" }, "geometry": { "type": "Point", "coordinates": [ -75.170954203123543, 39.944324572310137 ] } },
{ "type": "Feature", "properties": { "_id": 12, "X": 2701708.616870590019971, "Y": 261041.304474639997352, "STORE_ID": 140004, "OFFICIAL_S": "Almonte Mini Market", "UNOFFICIAL": "Almonte Mini Market", "STORE_ADDR": "328 W Annsbury St", "ZIP_CODE": "19140", "STORE_LEVE": "Healthy Corner Store" }, "geometry": { "type": "Point", "coordinates": [ -75.131738449956288, 40.020077522801508 ] } },
{ "type": "Feature", "properties": { "_id": 13, "X": 2706454.276832289993763, "Y": 252109.860376019991236, "STORE_ID": 134053, "OFFICIAL_S": "Amancio Dollar Outlet", "UNOFFICIAL": "Amancio Dollar Outlet", "STORE_ADDR": "3101 Kensington Avenue", "ZIP_CODE": "19134", "STORE_LEVE": "Healthy Corner Store" }, "geometry": { "type": "Point", "coordinates": [ -75.115752974213137, 39.995183109746726 ] } },
{ "type": "Feature", "properties": { "_id": 14, "X": 2713065.141753199975938, "Y": 266246.158783590013627, "STORE_ID": 124007, "OFFICIAL_S": "Ami Food Market Inc.", "UNOFFICIAL": null, "STORE_ADDR": "899 E Sanger St", "ZIP_CODE": "19124", "STORE_LEVE": "Healthy Corner Store" }, "geometry": { "type": "Point", "coordinates": [ -75.090649500751169, 40.033427694956508 ] } },
{ "type": "Feature", "properties": { "_id": 15, "X": 2694864.087491049896926, "Y": 251267.119914009992499, "STORE_ID": 132009, "OFFICIAL_S": "Anabel's Grocery", "UNOFFICIAL": "Anabel's Grocery", "STORE_ADDR": "1555 W Oakdale St", "ZIP_CODE": "19132", "STORE_LEVE": "Healthy Corner Store" }, "geometry": { "type": "Point", "coordinates": [ -75.157190363647175, 39.993812152305786 ] } },
{ "type": "Feature", "properties": { "_id": 16, "X": 2674841.599231630098075, "Y": 247775.897621450014412, "STORE_ID": 131005, "OFFICIAL_S": "Angelinas Grocery Store", "UNOFFICIAL": "Angelina's Grocery Store", "STORE_ADDR": "5301 Euclid St", "ZIP_CODE": "19131", "STORE_LEVE": "Healthy Corner Store" }, "geometry": { "type": "Point", "coordinates": [ -75.228978379336311, 39.98582351423196 ] } },
{ "type": "Feature", "properties": { "_id": 17, "X": 2726951.389014259912074, "Y": 265687.445933360024355, "STORE_ID": 135001, "OFFICIAL_S": "Anna's Deli", "UNOFFICIAL": "Anna's Deli", "STORE_ADDR": "4424 Princeton Ave", "ZIP_CODE": "19135", "STORE_LEVE": "Healthy Corner Store" }, "geometry": { "type": "Point", "coordinates": [ -75.041144243258174, 40.030736261563924 ] } },
{ "type": "Feature", "properties": { "_id": 18, "X": 2692198.936815060209483, "Y": 230104.530518029991072, "STORE_ID": 146013, "OFFICIAL_S": "Ariana Grocery II", "UNOFFICIAL": null, "STORE_ADDR": "1200 S 15th St", "ZIP_CODE": "19146", "STORE_LEVE": "Healthy Corner Store" }, "geometry": { "type": "Point", "coordinates": [ -75.168905618302389, 39.935957416087511 ] } },
{ "type": "Feature", "properties": { "_id": 19, "X": 2692596.250660540070385, "Y": 265958.845583370013628, "STORE_ID": 144004, "OFFICIAL_S": "Ashmead Variety", "UNOFFICIAL": null, "STORE_ADDR": "309 E Ashmead St", "ZIP_CODE": "19144", "STORE_LEVE": "Healthy Corner Store" }, "geometry": { "type": "Point", "coordinates": [ -75.163745546415868, 40.034307889793105 ] } },
{ "type": "Feature", "properties": { "_id": 20, "X": 2688464.594638039823622, "Y": 230129.213492620008765, "STORE_ID": 146014, "OFFICIAL_S": "Baez Grocery Llc", "UNOFFICIAL": null, "STORE_ADDR": "1267 S 23rd St", "ZIP_CODE": "19146", "STORE_LEVE": "Healthy Corner Store" }, "geometry": { "type": "Point", "coordinates": [ -75.182214179936011, 39.93632394570453 ] } },
{ "type": "Feature", "properties": { "_id": 21, "X": 2674456.299960820004344, "Y": 226268.886643940000795, "STORE_ID": 142006, "OFFICIAL_S": "Bain'S Halal Market And Grocery", "UNOFFICIAL": "Bain's Halal Market and", "STORE_ADDR": "6351 Woodland Ave", "ZIP_CODE": "19142", "STORE_LEVE": "Healthy Corner Store" }, "geometry": { "type": "Point", "coordinates": [ -75.232540426561755, 39.926838265208488 ] } },
{ "type": "Feature", "properties": { "_id": 22, "X": 2699491.73007627017796, "Y": 259955.935859880002681, "STORE_ID": 140095, "OFFICIAL_S": "Basilio Grocery Store", "UNOFFICIAL": null, "STORE_ADDR": "801 W Bristol St", "ZIP_CODE": "19140", "STORE_LEVE": "Healthy Corner Store" }, "geometry": { "type": "Point", "coordinates": [ -75.139764780565102, 40.017279485513811 ] } },
{ "type": "Feature", "properties": { "_id": 23, "X": 2672132.165586209855974, "Y": 221704.634556870005326, "STORE_ID": 142071, "OFFICIAL_S": "Bensale", "UNOFFICIAL": "Dove Market", "STORE_ADDR": "7244 Elmwood Ave", "ZIP_CODE": "19142", "STORE_LEVE": "Healthy Corner Store" }, "geometry": { "type": "Point", "coordinates": [ -75.241286132313448, 39.914495419120392 ] } },
{ "type": "Feature", "properties": { "_id": 24, "X": 2684693.016480459831655, "Y": 229614.031430450006155, "STORE_ID": 146015, "OFFICIAL_S": "Black Angel Food Market", "UNOFFICIAL": "Black Angel Food Market", "STORE_ADDR": "1501 S 31St St", "ZIP_CODE": "19146", "STORE_LEVE": "Healthy Corner Store" }, "geometry": { "type": "Point", "coordinates": [ -75.195711290863173, 39.935210509699459 ] } },
{ "type": "Feature", "properties": { "_id": 25, "X": 2689269.865233149845153, "Y": 232546.0286839499895, "STORE_ID": 146030, "OFFICIAL_S": "Brianette Deli + Grocery LLC", "UNOFFICIAL": "Kennedy Grocery", "STORE_ADDR": "755 S 22Nd St", "ZIP_CODE": "19146", "STORE_LEVE": "Healthy Corner Store" }, "geometry": { "type": "Point", "coordinates": [ -75.179092903769941, 39.942891295287964 ] } },
{ "type": "Feature", "properties": { "_id": 26, "X": 2695189.718856719788164, "Y": 257097.998897599987686, "STORE_ID": 140010, "OFFICIAL_S": "Britos Grocery", "UNOFFICIAL": null, "STORE_ADDR": "1627 W Erie Ave", "ZIP_CODE": "19140", "STORE_LEVE": "Healthy Corner Store" }, "geometry": { "type": "Point", "coordinates": [ -75.155417336084682, 40.009785470859207 ] } },
{ "type": "Feature", "properties": { "_id": 27, "X": 2673077.342918570153415, "Y": 244804.704785479989368, "STORE_ID": 131006, "OFFICIAL_S": "Cabrera Mini Market", "UNOFFICIAL": null, "STORE_ADDR": "1660 N 57Th St", "ZIP_CODE": "19131", "STORE_LEVE": "Healthy Corner Store" }, "geometry": { "type": "Point", "coordinates": [ -75.235573678419129, 39.977808594021113 ] } },
{ "type": "Feature", "properties": { "_id": 28, "X": 2700404.189780429936945, "Y": 259057.315607859985903, "STORE_ID": 140016, "OFFICIAL_S": "Carlos Mini Market #1", "UNOFFICIAL": null, "STORE_ADDR": "4171 N Fairhill St", "ZIP_CODE": "19140", "STORE_LEVE": "Healthy Corner Store" }, "geometry": { "type": "Point", "coordinates": [ -75.136603388284797, 40.014739674616102 ] } },
{ "type": "Feature", "properties": { "_id": 29, "X": 2691550.664702619891614, "Y": 228676.12774091999745, "STORE_ID": 146016, "OFFICIAL_S": "Castro Grocery", "UNOFFICIAL": "Castro Grocery", "STORE_ADDR": "1500 S 16Th St", "ZIP_CODE": "19146", "STORE_LEVE": "Healthy Corner Store" }, "geometry": { "type": "Point", "coordinates": [ -75.171365098193391, 39.932089922951363 ] } },
{ "type": "Feature", "properties": { "_id": 30, "X": 2689317.447414500173181, "Y": 246514.42150793998735, "STORE_ID": 121015, "OFFICIAL_S": "Cecil B Moore Grocery", "UNOFFICIAL": "Cecil B Moore Grocery", "STORE_ADDR": "2604 Cecil B Moore Ave", "ZIP_CODE": "19121", "STORE_LEVE": "Healthy Corner Store" }, "geometry": { "type": "Point", "coordinates": [ -75.177472313705337, 39.981216217458062 ] } },
{ "type": "Feature", "properties": { "_id": 31, "X": 2675799.162492670118809, "Y": 234908.069713979988592, "STORE_ID": 143020, "OFFICIAL_S": "Cedar Food Market Inc.", "UNOFFICIAL": "Cedar Food Market Inc.", "STORE_ADDR": "600 S 52nd St", "ZIP_CODE": "19143", "STORE_LEVE": "Healthy Corner Store" }, "geometry": { "type": "Point", "coordinates": [ -75.226874386482066, 39.95043906844127 ] } },
{ "type": "Feature", "properties": { "_id": 32, "X": 2679453.745227439794689, "Y": 233376.154960849991767, "STORE_ID": 143021, "OFFICIAL_S": "Chester Food Plaza", "UNOFFICIAL": null, "STORE_ADDR": "4700 Chester Ave", "ZIP_CODE": "19143", "STORE_LEVE": "Healthy Corner Store" }, "geometry": { "type": "Point", "coordinates": [ -75.214001544496995, 39.94594817214621 ] } },
{ "type": "Feature", "properties": { "_id": 33, "X": 2696200.123612919822335, "Y": 228332.38954671000829, "STORE_ID": 147064, "OFFICIAL_S": "Chuen Hing Grocery", "UNOFFICIAL": null, "STORE_ADDR": "1414 S 6th St", "ZIP_CODE": "19147", "STORE_LEVE": "Healthy Corner Store" }, "geometry": { "type": "Point", "coordinates": [ -75.154829137095717, 39.930772899495366 ] } },
{ "type": "Feature", "properties": { "_id": 34, "X": 2696522.421545510180295, "Y": 261493.306197680009063, "STORE_ID": 140021, "OFFICIAL_S": "Collado Grocery", "UNOFFICIAL": null, "STORE_ADDR": "4501 N 15Th St", "ZIP_CODE": "19140", "STORE_LEVE": "Healthy Corner Store" }, "geometry": { "type": "Point", "coordinates": [ -75.150199927100459, 40.021738322434203 ] } },
{ "type": "Feature", "properties": { "_id": 35, "X": 2707643.224874869920313, "Y": 253677.862089509988436, "STORE_ID": 134060, "OFFICIAL_S": "Collado Mini Market", "UNOFFICIAL": null, "STORE_ADDR": "942 E Ontario St", "ZIP_CODE": "19134", "STORE_LEVE": "Healthy Corner Store" }, "geometry": { "type": "Point", "coordinates": [ -75.111344165274531, 39.999388124301547 ] } },
{ "type": "Feature", "properties": { "_id": 36, "X": 2690962.434579609893262, "Y": 263781.422333910013549, "STORE_ID": 144007, "OFFICIAL_S": "Complete Grocery And Deli", "UNOFFICIAL": null, "STORE_ADDR": "147 W Hansberry St", "ZIP_CODE": "19144", "STORE_LEVE": "Healthy Corner Store" }, "geometry": { "type": "Point", "coordinates": [ -75.169804881877113, 40.028464336824555 ] } },
{ "type": "Feature", "properties": { "_id": 37, "X": 2695551.406319600064307, "Y": 226936.468902230000822, "STORE_ID": 147009, "OFFICIAL_S": "Cristo Rey Tienda Mexicana", "UNOFFICIAL": null, "STORE_ADDR": "1724 South 7Th St 1st Fl", "ZIP_CODE": "19147", "STORE_LEVE": "Healthy Corner Store" }, "geometry": { "type": "Point", "coordinates": [ -75.157287417022815, 39.926994872930322 ] } },
{ "type": "Feature", "properties": { "_id": 38, "X": 2688566.022578880190849, "Y": 227407.052032990002772, "STORE_ID": 145013, "OFFICIAL_S": "Cruz & F Grocery", "UNOFFICIAL": null, "STORE_ADDR": "1838 S 22nd St", "ZIP_CODE": "19145", "STORE_LEVE": "Healthy Corner Store" }, "geometry": { "type": "Point", "coordinates": [ -75.182134861201746, 39.92884633162992 ] } },
{ "type": "Feature", "properties": { "_id": 39, "X": 2689495.039683579932898, "Y": 226824.477772359998198, "STORE_ID": 145012, "OFFICIAL_S": "Cruz Brother Mini Market", "UNOFFICIAL": null, "STORE_ADDR": "1941 S 20th St", "ZIP_CODE": "19145", "STORE_LEVE": "Healthy Corner Store" }, "geometry": { "type": "Point", "coordinates": [ -75.178884184487586, 39.927173576538962 ] } },
{ "type": "Feature", "properties": { "_id": 40, "X": 2720706.676297, "Y": 259821.924769389996072, "STORE_ID": 124020, "OFFICIAL_S": "D&S Quick Stop", "UNOFFICIAL": null, "STORE_ADDR": "5537 Torresdale Ave", "ZIP_CODE": "19124", "STORE_LEVE": "Healthy Corner Store" }, "geometry": { "type": "Point", "coordinates": [ -75.064070761971948, 40.015165737861423 ] } },
{ "type": "Feature", "properties": { "_id": 41, "X": 2692043.559540490154177, "Y": 252591.191041299985955, "STORE_ID": 132059, "OFFICIAL_S": "Dave's Meat Market", "UNOFFICIAL": "Dave's Meat Market", "STORE_ADDR": "2831 N 22nd St", "ZIP_CODE": "19132", "STORE_LEVE": "Healthy Corner Store" }, "geometry": { "type": "Point", "coordinates": [ -75.167114497533177, 39.99767218586117 ] } },
{ "type": "Feature", "properties": { "_id": 42, "X": 2691661.005479009822011, "Y": 246492.23754872000427, "STORE_ID": 121020, "OFFICIAL_S": "Delaware Valley Market", "UNOFFICIAL": "Delaware Valley Market", "STORE_ADDR": "1753 N 21St St", "ZIP_CODE": "19121", "STORE_LEVE": "Healthy Corner Store" }, "geometry": { "type": "Point", "coordinates": [ -75.169115448881399, 39.980967662855313 ] } },
{ "type": "Feature", "properties": { "_id": 43, "X": 2675048.635680410079658, "Y": 225329.192368149990216, "STORE_ID": 142016, "OFFICIAL_S": "Denia A Sanchez Padilla Grocery", "UNOFFICIAL": null, "STORE_ADDR": "6401 Grays Ave", "ZIP_CODE": "19142", "STORE_LEVE": "Healthy Corner Store" }, "geometry": { "type": "Point", "coordinates": [ -75.23052486227283, 39.924213368877687 ] } },
{ "type": "Feature", "properties": { "_id": 44, "X": 2696147.103559489827603, "Y": 256970.796303620008985, "STORE_ID": 140033, "OFFICIAL_S": "Dollar Crazy", "UNOFFICIAL": "Erie Deli & Grocery", "STORE_ADDR": "1414 W Erie Ave", "ZIP_CODE": "19140", "STORE_LEVE": "Healthy Corner Store" }, "geometry": { "type": "Point", "coordinates": [ -75.152014404598347, 40.009359181239169 ] } },
{ "type": "Feature", "properties": { "_id": 45, "X": 2709370.387417620047927, "Y": 249477.125806219992228, "STORE_ID": 124021, "OFFICIAL_S": "Dollar Global", "UNOFFICIAL": "Dollar Global", "STORE_ADDR": "2413 E Allegheny Ave", "ZIP_CODE": "19124", "STORE_LEVE": "Healthy Corner Store" }, "geometry": { "type": "Point", "coordinates": [ -75.105630981988284, 39.987719950567971 ] } },
{ "type": "Feature", "properties": { "_id": 46, "X": 2689658.569478009827435, "Y": 228034.041122689988697, "STORE_ID": 145020, "OFFICIAL_S": "Duran Mini Market", "UNOFFICIAL": "Duran Grocery", "STORE_ADDR": "1701 S 20th St", "ZIP_CODE": "19145", "STORE_LEVE": "Healthy Corner Store" }, "geometry": { "type": "Point", "coordinates": [ -75.178175776155825, 39.930479504176887 ] } },
{ "type": "Feature", "properties": { "_id": 47, "X": 2671160.557489760220051, "Y": 245078.724869650002802, "STORE_ID": 151012, "OFFICIAL_S": "Economic Jefferson Food Market", "UNOFFICIAL": null, "STORE_ADDR": "6101 W Jefferson St", "ZIP_CODE": "19151", "STORE_LEVE": "Healthy Corner Store" }, "geometry": { "type": "Point", "coordinates": [ -75.242382672345713, 39.978710101931817 ] } },
{ "type": "Feature", "properties": { "_id": 48, "X": 2697644.41432, "Y": 261661.291676669992739, "STORE_ID": 140074, "OFFICIAL_S": "Edison Mini Market", "UNOFFICIAL": null, "STORE_ADDR": "4561 N 13Th St", "ZIP_CODE": "19140", "STORE_LEVE": "Healthy Corner Store" }, "geometry": { "type": "Point", "coordinates": [ -75.146177879318486, 40.022108533146316 ] } },
{ "type": "Feature", "properties": { "_id": 49, "X": 2703133.402429370209575, "Y": 261049.161339109996334, "STORE_ID": 140031, "OFFICIAL_S": "El Nino Grocery", "UNOFFICIAL": null, "STORE_ADDR": "4540 Rising Sun Ave", "ZIP_CODE": "19140", "STORE_LEVE": "Healthy Corner Store" }, "geometry": { "type": "Point", "coordinates": [ -75.126652748558769, 40.019983025953287 ] } },
{ "type": "Feature", "properties": { "_id": 50, "X": 2701230.925952579826117, "Y": 250562.293318089999957, "STORE_ID": 133019, "OFFICIAL_S": "El Rincon Restaurant", "UNOFFICIAL": "El Rinc¢n Latino", "STORE_ADDR": "186 West Lehigh Ave", "ZIP_CODE": "19133", "STORE_LEVE": "Healthy Corner Store" }, "geometry": { "type": "Point", "coordinates": [ -75.134551189427299, 39.991362847886798 ] } },
{ "type": "Feature", "properties": { "_id": 51, "X": 2700351.387922840192914, "Y": 258667.101282270014053, "STORE_ID": 140032, "OFFICIAL_S": "Elio Grocery", "UNOFFICIAL": null, "STORE_ADDR": "4100 N Fairhill St", "ZIP_CODE": "19140", "STORE_LEVE": "Healthy Corner Store" }, "geometry": { "type": "Point", "coordinates": [ -75.136833034019801, 40.01367324695692 ] } },
{ "type": "Feature", "properties": { "_id": 52, "X": 2674196.171557560097426, "Y": 223696.681836530013243, "STORE_ID": 142024, "OFFICIAL_S": "Elmwood Market", "UNOFFICIAL": "Elmwood Market", "STORE_ADDR": "6731 Elmwood Ave", "ZIP_CODE": "19142", "STORE_LEVE": "Healthy Corner Store" }, "geometry": { "type": "Point", "coordinates": [ -75.23372883402962, 39.919800452326335 ] } },
{ "type": "Feature", "properties": { "_id": 53, "X": 2702179.658118430059403, "Y": 263826.217215100012254, "STORE_ID": 120026, "OFFICIAL_S": "Elvis Grocery", "UNOFFICIAL": null, "STORE_ADDR": "326 W Ashdale St", "ZIP_CODE": "19120", "STORE_LEVE": "Healthy Corner Store" }, "geometry": { "type": "Point", "coordinates": [ -75.129762384294168, 40.02768073192621 ] } },
{ "type": "Feature", "properties": { "_id": 54, "X": 2696849.955250320024788, "Y": 250571.509477420011535, "STORE_ID": 133021, "OFFICIAL_S": "Estevez Grocery", "UNOFFICIAL": "Esteves Grocery", "STORE_ADDR": "1118 W Huntingdon St", "ZIP_CODE": "19133", "STORE_LEVE": "Healthy Corner Store" }, "geometry": { "type": "Point", "coordinates": [ -75.150178830802247, 39.991743194444339 ] } },
{ "type": "Feature", "properties": { "_id": 55, "X": 2689239.094379120040685, "Y": 271137.763579150021542, "STORE_ID": 144009, "OFFICIAL_S": "Estevez Grocery", "UNOFFICIAL": null, "STORE_ADDR": "457 E Washington Ln", "ZIP_CODE": "19144", "STORE_LEVE": "Healthy Corner Store" }, "geometry": { "type": "Point", "coordinates": [ -75.175190329792073, 40.048787810409586 ] } },
{ "type": "Feature", "properties": { "_id": 56, "X": 2708679.909511189907789, "Y": 265607.687124649994075, "STORE_ID": 124027, "OFFICIAL_S": "F&R Food Market", "UNOFFICIAL": null, "STORE_ADDR": "5271 Howland St", "ZIP_CODE": "19124", "STORE_LEVE": "Healthy Corner Store" }, "geometry": { "type": "Point", "coordinates": [ -75.10637102058314, 40.032037183015703 ] } },
{ "type": "Feature", "properties": { "_id": 57, "X": 2697062.598990960046649, "Y": 265410.034793730010279, "STORE_ID": 141011, "OFFICIAL_S": "Family's Grocery", "UNOFFICIAL": null, "STORE_ADDR": "5200 N 15th St", "ZIP_CODE": "19141", "STORE_LEVE": "Healthy Corner Store" }, "geometry": { "type": "Point", "coordinates": [ -75.14786003591324, 40.032441877333788 ] } },
{ "type": "Feature", "properties": { "_id": 58, "X": 2670597.253447629977018, "Y": 243873.333331500005443, "STORE_ID": 151006, "OFFICIAL_S": "Felton Mini Market Inc.", "UNOFFICIAL": "Felton Mini Market", "STORE_ADDR": "6225 Lansdowne Ave", "ZIP_CODE": "19151", "STORE_LEVE": "Healthy Corner Store" }, "geometry": { "type": "Point", "coordinates": [ -75.244513894648449, 39.975446369716799 ] } },
{ "type": "Feature", "properties": { "_id": 59, "X": 2701831.030462389811873, "Y": 266693.20830176997697, "STORE_ID": 120111, "OFFICIAL_S": "Fouta Food Market", "UNOFFICIAL": "Fouta Food Market", "STORE_ADDR": "5549 N 5th St", "ZIP_CODE": "19120", "STORE_LEVE": "Healthy Corner Store" }, "geometry": { "type": "Point", "coordinates": [ -75.130703130811682, 40.03557588446283 ] } },
{ "type": "Feature", "properties": { "_id": 60, "X": 2713466.51470548985526, "Y": 265975.729380530014168, "STORE_ID": 124031, "OFFICIAL_S": "Francisco Mini Market", "UNOFFICIAL": null, "STORE_ADDR": "948 E Sanger St", "ZIP_CODE": "19124", "STORE_LEVE": "Healthy Corner Store" }, "geometry": { "type": "Point", "coordinates": [ -75.089245883792216, 40.032652487976392 ] } },
{ "type": "Feature", "properties": { "_id": 61, "X": 2699367.585422770120203, "Y": 257688.111265429994091, "STORE_ID": 140093, "OFFICIAL_S": "Franklin Mini Mkt", "UNOFFICIAL": null, "STORE_ADDR": "3900 North Franklin Stre", "ZIP_CODE": "19140", "STORE_LEVE": "Healthy Corner Store" }, "geometry": { "type": "Point", "coordinates": [ -75.140447041295076, 40.011066822911644 ] } },
{ "type": "Feature", "properties": { "_id": 62, "X": 2697764.434711869806051, "Y": 247382.741626050003106, "STORE_ID": 122011, "OFFICIAL_S": "Friend Mini Market", "UNOFFICIAL": "Friend Mini Market", "STORE_ADDR": "2063 N 8th St", "ZIP_CODE": "19122", "STORE_LEVE": "Healthy Corner Store" }, "geometry": { "type": "Point", "coordinates": [ -75.147251879363026, 39.982919497826124 ] } },
{ "type": "Feature", "properties": { "_id": 63, "X": 2695298.926882579922676, "Y": 225121.777082020009402, "STORE_ID": 148024, "OFFICIAL_S": "Friendly Market", "UNOFFICIAL": "Friendly Market", "STORE_ADDR": "2135 S 7Th St", "ZIP_CODE": "19148", "STORE_LEVE": "Healthy Corner Store" }, "geometry": { "type": "Point", "coordinates": [ -75.158377113516906, 39.922035800294836 ] } },
{ "type": "Feature", "properties": { "_id": 64, "X": 2696428.536128569860011, "Y": 226767.880812149989652, "STORE_ID": 148018, "OFFICIAL_S": "Fuji Food Market", "UNOFFICIAL": "Gonzalez Primitiva", "STORE_ADDR": "1741 S 5Th St", "ZIP_CODE": "19148", "STORE_LEVE": "Healthy Corner Store" }, "geometry": { "type": "Point", "coordinates": [ -75.154178981849327, 39.926461553677498 ] } },
{ "type": "Feature", "properties": { "_id": 65, "X": 2688345.127384719904512, "Y": 229261.217171399999643, "STORE_ID": 146021, "OFFICIAL_S": "G & N Grocery Deli", "UNOFFICIAL": "G&N Grocery", "STORE_ADDR": "1438 S 23Rd St", "ZIP_CODE": "19146", "STORE_LEVE": "Healthy Corner Store" }, "geometry": { "type": "Point", "coordinates": [ -75.182729995321168, 39.933951726374964 ] } },
{ "type": "Feature", "properties": { "_id": 66, "X": 2703178.185508329886943, "Y": 254294.134764399990672, "STORE_ID": 134042, "OFFICIAL_S": "Garcia Grocery", "UNOFFICIAL": null, "STORE_ADDR": "177 E Ontario St", "ZIP_CODE": "19134", "STORE_LEVE": "Healthy Corner Store" }, "geometry": { "type": "Point", "coordinates": [ -75.127209119731347, 40.001444191717077 ] } },
{ "type": "Feature", "properties": { "_id": 67, "X": 2699251.196922190021724, "Y": 257132.908778309996706, "STORE_ID": 140129, "OFFICIAL_S": "Garcia Grocery", "UNOFFICIAL": null, "STORE_ADDR": "734 W Butler St", "ZIP_CODE": "19140", "STORE_LEVE": "Healthy Corner Store" }, "geometry": { "type": "Point", "coordinates": [ -75.140920912582686, 40.009552829158409 ] } },
{ "type": "Feature", "properties": { "_id": 68, "X": 2726934.33691, "Y": 265711.200835130002815, "STORE_ID": 135039, "OFFICIAL_S": "George's Deli", "UNOFFICIAL": "George's Deli", "STORE_ADDR": "4419 Princeton Ave", "ZIP_CODE": "19135", "STORE_LEVE": "Healthy Corner Store" }, "geometry": { "type": "Point", "coordinates": [ -75.041202506144913, 40.030802876536853 ] } },
{ "type": "Feature", "properties": { "_id": 69, "X": 2690247.547084609977901, "Y": 229031.969806620007148, "STORE_ID": 146022, "OFFICIAL_S": "Gil Grocery #2", "UNOFFICIAL": "Wilder St Food Market", "STORE_ADDR": "1426 S 19th St", "ZIP_CODE": "19146", "STORE_LEVE": "Healthy Corner Store" }, "geometry": { "type": "Point", "coordinates": [ -75.175972828611023, 39.933170683390358 ] } },
{ "type": "Feature", "properties": { "_id": 70, "X": 2700165.533825810067356, "Y": 258692.968375439988449, "STORE_ID": 140048, "OFFICIAL_S": "Gomez Grocery", "UNOFFICIAL": null, "STORE_ADDR": "4100 N 6Th St", "ZIP_CODE": "19140", "STORE_LEVE": "Healthy Corner Store" }, "geometry": { "type": "Point", "coordinates": [ -75.137493530638864, 40.013759316838488 ] } },
{ "type": "Feature", "properties": { "_id": 71, "X": 2702677.97499844012782, "Y": 268970.805585809983313, "STORE_ID": 120031, "OFFICIAL_S": "Gonzalez Grocery", "UNOFFICIAL": "Gonzalez Grocery", "STORE_ADDR": "5963 N 4Th St", "ZIP_CODE": "19120", "STORE_LEVE": "Healthy Corner Store" }, "geometry": { "type": "Point", "coordinates": [ -75.127438294035059, 40.041756411893473 ] } },
{ "type": "Feature", "properties": { "_id": 72, "X": 2708501.689998410176486, "Y": 263852.469013509980869, "STORE_ID": 124036, "OFFICIAL_S": "Gonzalez Mini Market", "UNOFFICIAL": null, "STORE_ADDR": "5144 Whitaker Ave", "ZIP_CODE": "19124", "STORE_LEVE": "Healthy Corner Store" }, "geometry": { "type": "Point", "coordinates": [ -75.10719471836272, 40.027235700497449 ] } },
{ "type": "Feature", "properties": { "_id": 73, "X": 2688672.489675969816744, "Y": 266049.630784839973785, "STORE_ID": 144013, "OFFICIAL_S": "Green Grocer", "UNOFFICIAL": null, "STORE_ADDR": "5810 Greene Stste 1", "ZIP_CODE": "19144", "STORE_LEVE": "Healthy Corner Store" }, "geometry": { "type": "Point", "coordinates": [ -75.177742654114653, 40.034871542444506 ] } },
{ "type": "Feature", "properties": { "_id": 74, "X": 2705437.397339430171996, "Y": 265041.887286950019188, "STORE_ID": 120097, "OFFICIAL_S": "Guerrero Grocery", "UNOFFICIAL": null, "STORE_ADDR": "5324 Rising Sun Ave", "ZIP_CODE": "19120", "STORE_LEVE": "Healthy Corner Store" }, "geometry": { "type": "Point", "coordinates": [ -75.11800532536013, 40.030750519357603 ] } },
{ "type": "Feature", "properties": { "_id": 75, "X": 2694303.861412669997662, "Y": 224378.21336697001243, "STORE_ID": 148032, "OFFICIAL_S": "Hai Yan Grocery", "UNOFFICIAL": "Hai Yan Grocery", "STORE_ADDR": "2330 S 9th St", "ZIP_CODE": "19148", "STORE_LEVE": "Healthy Corner Store" }, "geometry": { "type": "Point", "coordinates": [ -75.162000968026135, 39.920075595706244 ] } },
{ "type": "Feature", "properties": { "_id": 76, "X": 2710486.516762409824878, "Y": 256312.220519160007825, "STORE_ID": 134131, "OFFICIAL_S": "Health Food International", "UNOFFICIAL": "Health Food Internationa", "STORE_ADDR": "3939 M St", "ZIP_CODE": "19134", "STORE_LEVE": "Healthy Corner Store" }, "geometry": { "type": "Point", "coordinates": [ -75.100917998984031, 40.006382880527042 ] } },
{ "type": "Feature", "properties": { "_id": 77, "X": 2704093.318746159784496, "Y": 262174.618613340018783, "STORE_ID": 120112, "OFFICIAL_S": "Hershey's Ice Cream Grocery", "UNOFFICIAL": "Hershey's Ice Cream Groc", "STORE_ADDR": "146 E. Louden St", "ZIP_CODE": "19120", "STORE_LEVE": "Healthy Corner Store" }, "geometry": { "type": "Point", "coordinates": [ -75.123107432894216, 40.022992857323587 ] } },
{ "type": "Feature", "properties": { "_id": 78, "X": 2693707.863322759978473, "Y": 241082.688650180003606, "STORE_ID": 130024, "OFFICIAL_S": "Hot Spot Grocery & Deli", "UNOFFICIAL": "Hot Spot Grocery & Deli", "STORE_ADDR": "655 N 15th St", "ZIP_CODE": "19130", "STORE_LEVE": "Healthy Corner Store" }, "geometry": { "type": "Point", "coordinates": [ -75.162380135227224, 39.96595973575765 ] } },
{ "type": "Feature", "properties": { "_id": 79, "X": 2689184.203769369982183, "Y": 263488.750044449989218, "STORE_ID": 144017, "OFFICIAL_S": "J & J Family Grocery", "UNOFFICIAL": null, "STORE_ADDR": "301 W Coutler St", "ZIP_CODE": "19144", "STORE_LEVE": "Healthy Corner Store" }, "geometry": { "type": "Point", "coordinates": [ -75.176182492343926, 40.027803683891079 ] } },
{ "type": "Feature", "properties": { "_id": 80, "X": 2682842.26171196019277, "Y": 243351.336722050007666, "STORE_ID": 104011, "OFFICIAL_S": "J & R Food Market", "UNOFFICIAL": null, "STORE_ADDR": "3874 Poplar St", "ZIP_CODE": "19104", "STORE_LEVE": "Healthy Corner Store" }, "geometry": { "type": "Point", "coordinates": [ -75.200894489715452, 39.973052173945511 ] } },
{ "type": "Feature", "properties": { "_id": 81, "X": 2717234.760000289883465, "Y": 260182.163092939998023, "STORE_ID": 124042, "OFFICIAL_S": "J & R Mini Market", "UNOFFICIAL": "JR Mini Market", "STORE_ADDR": "1838 Harrison St", "ZIP_CODE": "19124", "STORE_LEVE": "Healthy Corner Store" }, "geometry": { "type": "Point", "coordinates": [ -75.076421526477148, 40.016443342863184 ] } },
{ "type": "Feature", "properties": { "_id": 82, "X": 2702929.071328519843519, "Y": 264189.631106580025516, "STORE_ID": 120036, "OFFICIAL_S": "Jaquez Family Grocery", "UNOFFICIAL": null, "STORE_ADDR": "5134 N 2nd St", "ZIP_CODE": "19120", "STORE_LEVE": "Healthy Corner Store" }, "geometry": { "type": "Point", "coordinates": [ -75.127048992026872, 40.028616845056533 ] } },
{ "type": "Feature", "properties": { "_id": 83, "X": 2704320.51231817016378, "Y": 270105.04070547997253, "STORE_ID": 120037, "OFFICIAL_S": "Jaquez Grocery", "UNOFFICIAL": null, "STORE_ADDR": "143 West Godfrey Ave", "ZIP_CODE": "19120", "STORE_LEVE": "Healthy Corner Store" }, "geometry": { "type": "Point", "coordinates": [ -75.121453878327912, 40.044734609054764 ] } },
{ "type": "Feature", "properties": { "_id": 84, "X": 2690091.936990149784833, "Y": 267797.230830569984391, "STORE_ID": 144018, "OFFICIAL_S": "Jaquez Grocery", "UNOFFICIAL": "Jaquez Grocery", "STORE_ADDR": "301 E Price St", "ZIP_CODE": "19144", "STORE_LEVE": "Healthy Corner Store" }, "geometry": { "type": "Point", "coordinates": [ -75.172493526433215, 40.039553275621941 ] } },
{ "type": "Feature", "properties": { "_id": 85, "X": 2694125.191759480163455, "Y": 226356.085404, "STORE_ID": 148036, "OFFICIAL_S": "Jd Grill & Deli Inc", "UNOFFICIAL": null, "STORE_ADDR": "1913 S 10Th St", "ZIP_CODE": "19148", "STORE_LEVE": "Healthy Corner Store" }, "geometry": { "type": "Point", "coordinates": [ -75.162431103041044, 39.92551714503869 ] } },
{ "type": "Feature", "properties": { "_id": 86, "X": 2705437.518151230178773, "Y": 252833.800827430008212, "STORE_ID": 134056, "OFFICIAL_S": "Jerrys General", "UNOFFICIAL": "Discount Cigarettes", "STORE_ADDR": "600 E Allegheny Ave", "ZIP_CODE": "19134", "STORE_LEVE": "Healthy Corner Store" }, "geometry": { "type": "Point", "coordinates": [ -75.119303352041555, 39.997252720168738 ] } },
{ "type": "Feature", "properties": { "_id": 87, "X": 2676238.668304310180247, "Y": 240496.820295370009262, "STORE_ID": 139036, "OFFICIAL_S": "Jonalis Grocery", "UNOFFICIAL": "Jonathan Cepeda Grocery", "STORE_ADDR": "315 N 52nd Street", "ZIP_CODE": "19139", "STORE_LEVE": "Healthy Corner Store" }, "geometry": { "type": "Point", "coordinates": [ -75.224737474560698, 39.965740141544842 ] } },
{ "type": "Feature", "properties": { "_id": 88, "X": 2696988.667473169974983, "Y": 223482.621416970010614, "STORE_ID": 148040, "OFFICIAL_S": "Jose Vargas Deli", "UNOFFICIAL": "Richie Deli", "STORE_ADDR": "2438 S 3Rd St", "ZIP_CODE": "19148", "STORE_LEVE": "Healthy Corner Store" }, "geometry": { "type": "Point", "coordinates": [ -75.152527164388687, 39.917401792356763 ] } },
{ "type": "Feature", "properties": { "_id": 89, "X": 2670474.298285590019077, "Y": 246936.426054009993095, "STORE_ID": 151022, "OFFICIAL_S": "Joseph P Giordano Jr", "UNOFFICIAL": null, "STORE_ADDR": "6154 Lancaster Ave", "ZIP_CODE": "19151", "STORE_LEVE": "Healthy Corner Store" }, "geometry": { "type": "Point", "coordinates": [ -75.244642412469418, 39.983861128639099 ] } },
{ "type": "Feature", "properties": { "_id": 90, "X": 2693497.325303399935365, "Y": 274299.304961770016234, "STORE_ID": 138011, "OFFICIAL_S": "Josue Grocery", "UNOFFICIAL": "Josue Grocery", "STORE_ADDR": "6672 Cornelius St", "ZIP_CODE": "19138", "STORE_LEVE": "Healthy Corner Store" }, "geometry": { "type": "Point", "coordinates": [ -75.159655484661599, 40.057121100676277 ] } },
{ "type": "Feature", "properties": { "_id": 91, "X": 2694946.023517420049757, "Y": 229001.696665469993604, "STORE_ID": 148055, "OFFICIAL_S": "L M Grocery Store", "UNOFFICIAL": "L M Grocery", "STORE_ADDR": "1309 S 9th St", "ZIP_CODE": "19148", "STORE_LEVE": "Healthy Corner Store" }, "geometry": { "type": "Point", "coordinates": [ -75.159229016790761, 39.932710508356429 ] } },
{ "type": "Feature", "properties": { "_id": 92, "X": 2693038.53457929007709, "Y": 228260.526365330006229, "STORE_ID": 147026, "OFFICIAL_S": "La Fortuna", "UNOFFICIAL": null, "STORE_ADDR": "1548 S 13th Street", "ZIP_CODE": "19147", "STORE_LEVE": "Healthy Corner Store" }, "geometry": { "type": "Point", "coordinates": [ -75.166105247258088, 39.93083016555849 ] } },
{ "type": "Feature", "properties": { "_id": 93, "X": 2701505.570458020083606, "Y": 254523.699316270009149, "STORE_ID": 140064, "OFFICIAL_S": "La Original Grocery", "UNOFFICIAL": null, "STORE_ADDR": "212 W Ontario St", "ZIP_CODE": "19140", "STORE_LEVE": "Healthy Corner Store" }, "geometry": { "type": "Point", "coordinates": [ -75.133152555780413, 40.00221028814272 ] } },
{ "type": "Feature", "properties": { "_id": 94, "X": 2698369.615361670032144, "Y": 245268.716354159987532, "STORE_ID": 122017, "OFFICIAL_S": "La Sienega Deli Grocery #1", "UNOFFICIAL": null, "STORE_ADDR": "601 Cecil B Moore Ave", "ZIP_CODE": "19122", "STORE_LEVE": "Healthy Corner Store" }, "geometry": { "type": "Point", "coordinates": [ -75.145315708100384, 39.977069785799863 ] } },
{ "type": "Feature", "properties": { "_id": 95, "X": 2698787.069916420150548, "Y": 242732.040052219992504, "STORE_ID": 123012, "OFFICIAL_S": "Lawrence Bakery Inc.", "UNOFFICIAL": null, "STORE_ADDR": "423 W Girard Ave", "ZIP_CODE": "19123", "STORE_LEVE": "Healthy Corner Store" }, "geometry": { "type": "Point", "coordinates": [ -75.144093852441131, 39.970075522061073 ] } },
{ "type": "Feature", "properties": { "_id": 96, "X": 2686023.814528190065175, "Y": 266784.64636180998059, "STORE_ID": 144041, "OFFICIAL_S": "Lee's Market", "UNOFFICIAL": "Lee's Market", "STORE_ADDR": "280 W Washington Ln", "ZIP_CODE": "19144", "STORE_LEVE": "Healthy Corner Store" }, "geometry": { "type": "Point", "coordinates": [ -75.187121503623672, 40.037099759358696 ] } },
{ "type": "Feature", "properties": { "_id": 97, "X": 2695467.038242840208113, "Y": 223084.553685249993578, "STORE_ID": 148051, "OFFICIAL_S": "Little Petes Deli", "UNOFFICIAL": "Little Pete's Deli", "STORE_ADDR": "2600 S 6Th St", "ZIP_CODE": "19148", "STORE_LEVE": "Healthy Corner Store" }, "geometry": { "type": "Point", "coordinates": [ -75.15799115851992, 39.916432229229052 ] } },
{ "type": "Feature", "properties": { "_id": 98, "X": 2696309.403460450004786, "Y": 225911.700376190012321, "STORE_ID": 148054, "OFFICIAL_S": "Los Coyotes", "UNOFFICIAL": "Los Volcanos", "STORE_ADDR": "1924 S 5Th St", "ZIP_CODE": "19148", "STORE_LEVE": "Healthy Corner Store" }, "geometry": { "type": "Point", "coordinates": [ -75.154693270171563, 39.924121855237892 ] } },
{ "type": "Feature", "properties": { "_id": 99, "X": 2717504.245257659815252, "Y": 260631.91445045999717, "STORE_ID": 124056, "OFFICIAL_S": "Los Manueles Grocery", "UNOFFICIAL": null, "STORE_ADDR": "1829 Wakeling St", "ZIP_CODE": "19124", "STORE_LEVE": "Healthy Corner Store" }, "geometry": { "type": "Point", "coordinates": [ -75.075411214616011, 40.017655001370883 ] } },
{ "type": "Feature", "properties": { "_id": 100, "X": 2690043.471743439789861, "Y": 269586.080773100024089, "STORE_ID": 144025, "OFFICIAL_S": "Magnolia Variety Store", "UNOFFICIAL": null, "STORE_ADDR": "461 E High St", "ZIP_CODE": "19144", "STORE_LEVE": "Healthy Corner Store" }, "geometry": { "type": "Point", "coordinates": [ -75.172480102391702, 40.044465668667037 ] } },
{ "type": "Feature", "properties": { "_id": 101, "X": 2714970.181988229975104, "Y": 257568.470172489993274, "STORE_ID": 124023, "OFFICIAL_S": "Manabao Food Market", "UNOFFICIAL": null, "STORE_ADDR": "1900 Church St", "ZIP_CODE": "19124", "STORE_LEVE": "Healthy Corner Store" }, "geometry": { "type": "Point", "coordinates": [ -75.08478453469418, 40.009459598229419 ] } },
{ "type": "Feature", "properties": { "_id": 102, "X": 2703157.410861449781805, "Y": 243796.285355300002266, "STORE_ID": 125014, "OFFICIAL_S": "Mandi's Deli", "UNOFFICIAL": "Mandi's Deli & Steak Sho", "STORE_ADDR": "543 E Thompson St", "ZIP_CODE": "19125", "STORE_LEVE": "Healthy Corner Store" }, "geometry": { "type": "Point", "coordinates": [ -75.1283954596271, 39.972640700297674 ] } },
{ "type": "Feature", "properties": { "_id": 103, "X": 2705994.718181559816003, "Y": 260366.546400269988226, "STORE_ID": 120051, "OFFICIAL_S": "Marcela Market", "UNOFFICIAL": null, "STORE_ADDR": "4566 D Street", "ZIP_CODE": "19120", "STORE_LEVE": "Healthy Corner Store" }, "geometry": { "type": "Point", "coordinates": [ -75.116513814917838, 40.017876251993414 ] } },
{ "type": "Feature", "properties": { "_id": 104, "X": 2717396.190228430088609, "Y": 256983.895314639987191, "STORE_ID": 124061, "OFFICIAL_S": "Margaret Mini Market", "UNOFFICIAL": null, "STORE_ADDR": "2300 Margaret Street", "ZIP_CODE": "19124", "STORE_LEVE": "Healthy Corner Store" }, "geometry": { "type": "Point", "coordinates": [ -75.076191113880611, 40.007654321547903 ] } },
{ "type": "Feature", "properties": { "_id": 105, "X": 2703401.746226840186864, "Y": 254262.778242750006029, "STORE_ID": 134134, "OFFICIAL_S": "Marlin's Deli", "UNOFFICIAL": "V & V Deli", "STORE_ADDR": "208 E Ontario St", "ZIP_CODE": "19134", "STORE_LEVE": "Healthy Corner Store" }, "geometry": { "type": "Point", "coordinates": [ -75.126414805177575, 40.001339925592561 ] } },
{ "type": "Feature", "properties": { "_id": 106, "X": 2673256.74327557021752, "Y": 243771.164652720006416, "STORE_ID": 131026, "OFFICIAL_S": "Martinez Grocery", "UNOFFICIAL": "Media Geocery", "STORE_ADDR": "1501 N 57Th St", "ZIP_CODE": "19131", "STORE_LEVE": "Healthy Corner Store" }, "geometry": { "type": "Point", "coordinates": [ -75.235038809205264, 39.974958526979101 ] } },
{ "type": "Feature", "properties": { "_id": 107, "X": 2674500.585130699910223, "Y": 243373.70942694999394, "STORE_ID": 131023, "OFFICIAL_S": "Maximino Food Market Inc", "UNOFFICIAL": "Rodriguez #2 Mini Market", "STORE_ADDR": "5453 Master St", "ZIP_CODE": "19131", "STORE_LEVE": "Healthy Corner Store" }, "geometry": { "type": "Point", "coordinates": [ -75.230642952100624, 39.973770595094734 ] } },
{ "type": "Feature", "properties": { "_id": 108, "X": 2691517.994536280166358, "Y": 247110.919135209987871, "STORE_ID": 121039, "OFFICIAL_S": "Mercado Food Market", "UNOFFICIAL": "Mercado Food Market", "STORE_ADDR": "1859 N Van Pelt St", "ZIP_CODE": "19121", "STORE_LEVE": "Healthy Corner Store" }, "geometry": { "type": "Point", "coordinates": [ -75.16956104999484, 39.982676765637329 ] } },
{ "type": "Feature", "properties": { "_id": 109, "X": 2675999.314507259987295, "Y": 236421.651460799999768, "STORE_ID": 143064, "OFFICIAL_S": "Mezquita Grocery", "UNOFFICIAL": "Mezquita Grocery", "STORE_ADDR": "300 S 52nd St", "ZIP_CODE": "19143", "STORE_LEVE": "Healthy Corner Store" }, "geometry": { "type": "Point", "coordinates": [ -75.226006504397205, 39.954576645559214 ] } },
{ "type": "Feature", "properties": { "_id": 110, "X": 2697766.05151280015707, "Y": 249650.653303970000707, "STORE_ID": 133060, "OFFICIAL_S": "Mini Mart", "UNOFFICIAL": "Mini Mart", "STORE_ADDR": "2445 Germantown Ave", "ZIP_CODE": "19133", "STORE_LEVE": "Healthy Corner Store" }, "geometry": { "type": "Point", "coordinates": [ -75.147007603727829, 39.989142359727119 ] } },
{ "type": "Feature", "properties": { "_id": 111, "X": 2693546.915913490112871, "Y": 225518.938045229995623, "STORE_ID": 148062, "OFFICIAL_S": "Mom's Variety", "UNOFFICIAL": "Mom's Variety", "STORE_ADDR": "1101 Cantrell St", "ZIP_CODE": "19148", "STORE_LEVE": "Healthy Corner Store" }, "geometry": { "type": "Point", "coordinates": [ -75.164579419702719, 39.923266541694368 ] } },
{ "type": "Feature", "properties": { "_id": 112, "X": 2694749.693632060196251, "Y": 261735.730163069994887, "STORE_ID": 140078, "OFFICIAL_S": "Mora Mini Market Inc", "UNOFFICIAL": null, "STORE_ADDR": "4501 N 19Th St", "ZIP_CODE": "19140", "STORE_LEVE": "Healthy Corner Store" }, "geometry": { "type": "Point", "coordinates": [ -75.156501356304133, 40.022546583884242 ] } },
{ "type": "Feature", "properties": { "_id": 113, "X": 2702636.828189089894295, "Y": 245407.176515880011721, "STORE_ID": 125031, "OFFICIAL_S": "Mr. Bill's Deli", "UNOFFICIAL": "Mr. Bill's Deli", "STORE_ADDR": "1638 E Berks St", "ZIP_CODE": "19125", "STORE_LEVE": "Healthy Corner Store" }, "geometry": { "type": "Point", "coordinates": [ -75.130081566819541, 39.977103252419155 ] } },
{ "type": "Feature", "properties": { "_id": 114, "X": 2693135.034056750126183, "Y": 249990.105007850012043, "STORE_ID": 132079, "OFFICIAL_S": "Norris St Convenience Store", "UNOFFICIAL": "Norris St Convenience St", "STORE_ADDR": "2400 N 19th St", "ZIP_CODE": "19132", "STORE_LEVE": "Healthy Corner Store" }, "geometry": { "type": "Point", "coordinates": [ -75.163492283258066, 39.990447263363933 ] } },
{ "type": "Feature", "properties": { "_id": 115, "X": 2691549.977628400083631, "Y": 227777.275747409992618, "STORE_ID": 145046, "OFFICIAL_S": "Nu Mini Market", "UNOFFICIAL": null, "STORE_ADDR": "1542 Morris St", "ZIP_CODE": "19145", "STORE_LEVE": "Healthy Corner Store" }, "geometry": { "type": "Point", "coordinates": [ -75.171461118570022, 39.929623567168036 ] } },
{ "type": "Feature", "properties": { "_id": 116, "X": 2692213.446401230059564, "Y": 231699.889981279993663, "STORE_ID": 146035, "OFFICIAL_S": "Nunez Grocery", "UNOFFICIAL": null, "STORE_ADDR": "1544 Christian St", "ZIP_CODE": "19146", "STORE_LEVE": "Healthy Corner Store" }, "geometry": { "type": "Point", "coordinates": [ -75.168687632307808, 39.940333844861442 ] } },
{ "type": "Feature", "properties": { "_id": 117, "X": 2698343.173281370196491, "Y": 247510.12305389001267, "STORE_ID": 122022, "OFFICIAL_S": "Ortega Grocery #2", "UNOFFICIAL": null, "STORE_ADDR": "642 Diamond St", "ZIP_CODE": "19122", "STORE_LEVE": "Healthy Corner Store" }, "geometry": { "type": "Point", "coordinates": [ -75.145174150355174, 39.983222188595839 ] } },
{ "type": "Feature", "properties": { "_id": 118, "X": 2694204.889704219996929, "Y": 258471.40907356000389, "STORE_ID": 140025, "OFFICIAL_S": "P&P Mini Market", "UNOFFICIAL": null, "STORE_ADDR": "1900 W Hunting Park Ave", "ZIP_CODE": "19140", "STORE_LEVE": "Healthy Corner Store" }, "geometry": { "type": "Point", "coordinates": [ -75.158787723772136, 40.013633387321576 ] } },
{ "type": "Feature", "properties": { "_id": 119, "X": 2674050.633799170143902, "Y": 241894.951694240007782, "STORE_ID": 131027, "OFFICIAL_S": "Papi Food Market", "UNOFFICIAL": "Papi Food Market", "STORE_ADDR": "641 N 56th St", "ZIP_CODE": "19131", "STORE_LEVE": "Healthy Corner Store" }, "geometry": { "type": "Point", "coordinates": [ -75.232398124888448, 39.969748092095138 ] } },
{ "type": "Feature", "properties": { "_id": 120, "X": 2716362.003482120111585, "Y": 264565.602919159980956, "STORE_ID": 124073, "OFFICIAL_S": "Papos Grocery", "UNOFFICIAL": null, "STORE_ADDR": "1601 E Cheltenham Ave", "ZIP_CODE": "19124", "STORE_LEVE": "Healthy Corner Store" }, "geometry": { "type": "Point", "coordinates": [ -75.079062805697987, 40.028543384673959 ] } },
{ "type": "Feature", "properties": { "_id": 121, "X": 2685538.767206219956279, "Y": 240155.935948380007176, "STORE_ID": 104029, "OFFICIAL_S": "Peralta Food Market", "UNOFFICIAL": null, "STORE_ADDR": "601 N 34th St", "ZIP_CODE": "19104", "STORE_LEVE": "Healthy Corner Store" }, "geometry": { "type": "Point", "coordinates": [ -75.191607722031748, 39.964070043253635 ] } },
{ "type": "Feature", "properties": { "_id": 122, "X": 2714999.9915706301108, "Y": 265221.070521969988476, "STORE_ID": 124069, "OFFICIAL_S": "Peralta Food Market", "UNOFFICIAL": null, "STORE_ADDR": "5451 Rutland St", "ZIP_CODE": "19124", "STORE_LEVE": "Healthy Corner Store" }, "geometry": { "type": "Point", "coordinates": [ -75.0838535260539, 40.030454861734796 ] } },
{ "type": "Feature", "properties": { "_id": 123, "X": 2691974.020072, "Y": 248762.38672887001303, "STORE_ID": 121046, "OFFICIAL_S": "Peralta's Grocery", "UNOFFICIAL": "Susquehanna Food Market", "STORE_ADDR": "2163 N 21St St", "ZIP_CODE": "19121", "STORE_LEVE": "Healthy Corner Store" }, "geometry": { "type": "Point", "coordinates": [ -75.167762135564047, 39.98717172478684 ] } },
{ "type": "Feature", "properties": { "_id": 124, "X": 2699135.851416840218008, "Y": 253700.536735789995873, "STORE_ID": 133039, "OFFICIAL_S": "Perez Grocery #2", "UNOFFICIAL": "Aria Grocery (? - faded", "STORE_ADDR": "640 W Allegheny Ave", "ZIP_CODE": "19133", "STORE_LEVE": "Healthy Corner Store" }, "geometry": { "type": "Point", "coordinates": [ -75.141694352882411, 40.000144014428983 ] } },
{ "type": "Feature", "properties": { "_id": 125, "X": 2691861.14792, "Y": 229101.786074530013138, "STORE_ID": 146039, "OFFICIAL_S": "Phong Grocery", "UNOFFICIAL": "Phong Grocery", "STORE_ADDR": "1519 Reed St", "ZIP_CODE": "19146", "STORE_LEVE": "Healthy Corner Store" }, "geometry": { "type": "Point", "coordinates": [ -75.170214110401119, 39.933233021586211 ] } },
{ "type": "Feature", "properties": { "_id": 126, "X": 2698460.004895810037851, "Y": 249794.035358819994144, "STORE_ID": 133059, "OFFICIAL_S": "Pichardo Food Market", "UNOFFICIAL": "Pichardo's Food Market", "STORE_ADDR": "701 W Cumberland St", "ZIP_CODE": "19133", "STORE_LEVE": "Healthy Corner Store" }, "geometry": { "type": "Point", "coordinates": [ -75.144516995581938, 39.989479621382806 ] } },
{ "type": "Feature", "properties": { "_id": 127, "X": 2679300.786442849785089, "Y": 234454.650540060014464, "STORE_ID": 143124, "OFFICIAL_S": "Pickles and Pies Deli", "UNOFFICIAL": "Pickles & Pies", "STORE_ADDR": "4533 Baltimore Ave", "ZIP_CODE": "19143", "STORE_LEVE": "Healthy Corner Store" }, "geometry": { "type": "Point", "coordinates": [ -75.214436430044287, 39.948919613032174 ] } },
{ "type": "Feature", "properties": { "_id": 128, "X": 2677423.4853156497702, "Y": 241028.216894779994618, "STORE_ID": 139052, "OFFICIAL_S": "Porfi Grocery", "UNOFFICIAL": "Lorena's Grocery", "STORE_ADDR": "850 N 50th St", "ZIP_CODE": "19139", "STORE_LEVE": "Healthy Corner Store" }, "geometry": { "type": "Point", "coordinates": [ -75.220457977197853, 39.967105223595802 ] } },
{ "type": "Feature", "properties": { "_id": 129, "X": 2707724.80868, "Y": 263831.609872539993376, "STORE_ID": 124001, "OFFICIAL_S": "R&W", "UNOFFICIAL": null, "STORE_ADDR": "5087 F St", "ZIP_CODE": "19124", "STORE_LEVE": "Healthy Corner Store" }, "geometry": { "type": "Point", "coordinates": [ -75.109969806462644, 40.027242243413525 ] } },
{ "type": "Feature", "properties": { "_id": 130, "X": 2677500.120635529980063, "Y": 229208.145368989993585, "STORE_ID": 143072, "OFFICIAL_S": "Ray's Grocery", "UNOFFICIAL": null, "STORE_ADDR": "5540 Woodland Ave", "ZIP_CODE": "19143", "STORE_LEVE": "Healthy Corner Store" }, "geometry": { "type": "Point", "coordinates": [ -75.221391963588673, 39.934664923055507 ] } },
{ "type": "Feature", "properties": { "_id": 131, "X": 2690438.207647759933025, "Y": 230432.961137289996259, "STORE_ID": 146020, "OFFICIAL_S": "Right Triangle", "UNOFFICIAL": "Dorothy J. V. Perrine", "STORE_ADDR": "1201 S 19Th St", "ZIP_CODE": "19146", "STORE_LEVE": "Healthy Corner Store" }, "geometry": { "type": "Point", "coordinates": [ -75.175147607038014, 39.936999692239269 ] } },
{ "type": "Feature", "properties": { "_id": 132, "X": 2689977.691748179960996, "Y": 246073.103397460014094, "STORE_ID": 121049, "OFFICIAL_S": "Rodriguez Food Market II", "UNOFFICIAL": "Quality Food Mart", "STORE_ADDR": "2454 Turner St", "ZIP_CODE": "19121", "STORE_LEVE": "Healthy Corner Store" }, "geometry": { "type": "Point", "coordinates": [ -75.175163209093071, 39.979952445820601 ] } },
{ "type": "Feature", "properties": { "_id": 133, "X": 2690520.191172639839351, "Y": 252627.462201210000785, "STORE_ID": 132040, "OFFICIAL_S": "Rodriguez Mini Market", "UNOFFICIAL": "Rodriguez Mini Market", "STORE_ADDR": "2513 W Somerset St", "ZIP_CODE": "19132", "STORE_LEVE": "Healthy Corner Store" }, "geometry": { "type": "Point", "coordinates": [ -75.17254570634536, 39.997893874289971 ] } },
{ "type": "Feature", "properties": { "_id": 134, "X": 2706246.267616429831833, "Y": 250727.859148160001496, "STORE_ID": 134089, "OFFICIAL_S": "Romano Grocery", "UNOFFICIAL": "Romano Grocery", "STORE_ADDR": "2000 E Orleans St", "ZIP_CODE": "19134", "STORE_LEVE": "Healthy Corner Store" }, "geometry": { "type": "Point", "coordinates": [ -75.116642118478765, 39.99140806165596 ] } },
{ "type": "Feature", "properties": { "_id": 135, "X": 2674129.749227039981633, "Y": 222020.158672989986371, "STORE_ID": 142051, "OFFICIAL_S": "Romano Grocery", "UNOFFICIAL": null, "STORE_ADDR": "6935 Dicks Ave", "ZIP_CODE": "19142", "STORE_LEVE": "Healthy Corner Store" }, "geometry": { "type": "Point", "coordinates": [ -75.234135801283557, 39.915205244948652 ] } },
{ "type": "Feature", "properties": { "_id": 136, "X": 2688609.923578179907054, "Y": 245058.305285329988692, "STORE_ID": 121029, "OFFICIAL_S": "Sajoma Grocery", "UNOFFICIAL": "J & M Grocery", "STORE_ADDR": "1400 N Etting St", "ZIP_CODE": "19121", "STORE_LEVE": "Healthy Corner Store" }, "geometry": { "type": "Point", "coordinates": [ -75.180147153726026, 39.977277232931378 ] } },
{ "type": "Feature", "properties": { "_id": 467, "X": 2706134.730031880084425, "Y": 253887.557332349999342, "STORE_ID": 134012, "OFFICIAL_S": "Bonifacio Grocery", "UNOFFICIAL": "Marisol Mini Market", "STORE_ADDR": "701 E Ontario St", "ZIP_CODE": "19134", "STORE_LEVE": "Enhanced Healthy Corner Store" }, "geometry": { "type": "Point", "coordinates": [ -75.116703807617824, 40.000087091950938 ] } },
{ "type": "Feature", "properties": { "_id": 468, "X": 2677101.199024400208145, "Y": 234068.458811590011464, "STORE_ID": 143017, "OFFICIAL_S": "Boost Market", "UNOFFICIAL": "Market", "STORE_ADDR": "4922 Baltimore Ave", "ZIP_CODE": "19143", "STORE_LEVE": "Enhanced Healthy Corner Store" }, "geometry": { "type": "Point", "coordinates": [ -75.222317911462071, 39.948032975632167 ] } },
{ "type": "Feature", "properties": { "_id": 469, "X": 2688048.545726249925792, "Y": 246548.087225560011575, "STORE_ID": 121010, "OFFICIAL_S": "Bravo Mini Market", "UNOFFICIAL": "Bravo Mini Mart", "STORE_ADDR": "1646 N 29Th St", "ZIP_CODE": "19121", "STORE_LEVE": "Enhanced Healthy Corner Store" }, "geometry": { "type": "Point", "coordinates": [ -75.181994853441651, 39.981409960419406 ] } },
{ "type": "Feature", "properties": { "_id": 470, "X": 2699768.783418950159103, "Y": 246758.495871419989271, "STORE_ID": 122018, "OFFICIAL_S": "Brillante Mini Market", "UNOFFICIAL": "Brillante Mini Market", "STORE_ADDR": "312 W Norris St", "ZIP_CODE": "19122", "STORE_LEVE": "Enhanced Healthy Corner Store" }, "geometry": { "type": "Point", "coordinates": [ -75.140168330554843, 39.981044252621672 ] } },
{ "type": "Feature", "properties": { "_id": 471, "X": 2694188.385838590096682, "Y": 247850.748906230001012, "STORE_ID": 121071, "OFFICIAL_S": "Brisita Grocery", "UNOFFICIAL": "Fontain Deli Market", "STORE_ADDR": "2027 N 16th St", "ZIP_CODE": "19121", "STORE_LEVE": "Enhanced Healthy Corner Store" }, "geometry": { "type": "Point", "coordinates": [ -75.159958504819656, 39.984492254226481 ] } },
{ "type": "Feature", "properties": { "_id": 472, "X": 2691888.656884139869362, "Y": 244566.76124550998793, "STORE_ID": 121012, "OFFICIAL_S": "Brother's Mini Market", "UNOFFICIAL": "Brother?s", "STORE_ADDR": "2012 Ridge Ave", "ZIP_CODE": "19121", "STORE_LEVE": "Enhanced Healthy Corner Store" }, "geometry": { "type": "Point", "coordinates": [ -75.168504266168171, 39.975665986701401 ] } },
{ "type": "Feature", "properties": { "_id": 473, "X": 2690240.17024980019778, "Y": 248071.480119579995517, "STORE_ID": 121013, "OFFICIAL_S": "C Food Market", "UNOFFICIAL": "C Community Food Market", "STORE_ADDR": "2440 W Norris St", "ZIP_CODE": "19121", "STORE_LEVE": "Enhanced Healthy Corner Store" }, "geometry": { "type": "Point", "coordinates": [ -75.174019023906922, 39.98541489397347 ] } },
{ "type": "Feature", "properties": { "_id": 474, "X": 2700940.87647745013237, "Y": 246595.552779299992835, "STORE_ID": 122007, "OFFICIAL_S": "Canemo Grocery", "UNOFFICIAL": "Tejada Food Market", "STORE_ADDR": "172 W Norris St", "ZIP_CODE": "19122", "STORE_LEVE": "Enhanced Healthy Corner Store" }, "geometry": { "type": "Point", "coordinates": [ -75.136004886256202, 39.980502000592146 ] } },
{ "type": "Feature", "properties": { "_id": 475, "X": 2722503.360799579881132, "Y": 277021.358614669996314, "STORE_ID": 152002, "OFFICIAL_S": "Castor Discount", "UNOFFICIAL": "Castor Discount Grocery", "STORE_ADDR": "8011 Castor Ave", "ZIP_CODE": "19152", "STORE_LEVE": "Enhanced Healthy Corner Store" }, "geometry": { "type": "Point", "coordinates": [ -75.055786189979116, 40.062208080316374 ] } },
{ "type": "Feature", "properties": { "_id": 476, "X": 2689009.596996719948947, "Y": 232122.24615565998829, "STORE_ID": 146017, "OFFICIAL_S": "Christian Food Market", "UNOFFICIAL": "Christian Food Market", "STORE_ADDR": "2243 Christian Street", "ZIP_CODE": "19146", "STORE_LEVE": "Enhanced Healthy Corner Store" }, "geometry": { "type": "Point", "coordinates": [ -75.180064703924359, 39.941749244195115 ] } },
{ "type": "Feature", "properties": { "_id": 477, "X": 2700365.485053540207446, "Y": 251273.43740818000515, "STORE_ID": 133010, "OFFICIAL_S": "Chuchu Mini Market", "UNOFFICIAL": "Chuchu Mini Market", "STORE_ADDR": "323 W Somerset St", "ZIP_CODE": "19133", "STORE_LEVE": "Enhanced Healthy Corner Store" }, "geometry": { "type": "Point", "coordinates": [ -75.137563468153274, 39.993384480149253 ] } },
{ "type": "Feature", "properties": { "_id": 478, "X": 2692432.336960010230541, "Y": 244914.432945270003984, "STORE_ID": 121017, "OFFICIAL_S": "City Food Market", "UNOFFICIAL": "City Food Market", "STORE_ADDR": "1445 North 19th St", "ZIP_CODE": "19121", "STORE_LEVE": "Enhanced Healthy Corner Store" }, "geometry": { "type": "Point", "coordinates": [ -75.16652890209626, 39.9765763425575 ] } },
{ "type": "Feature", "properties": { "_id": 479, "X": 2687992.364504320081323, "Y": 246170.006984609994106, "STORE_ID": 121019, "OFFICIAL_S": "Community Food Market Llc #1", "UNOFFICIAL": "Community Minimarket", "STORE_ADDR": "2901 W Oxford St", "ZIP_CODE": "19121", "STORE_LEVE": "Enhanced Healthy Corner Store" }, "geometry": { "type": "Point", "coordinates": [ -75.182234468854134, 39.980377006031816 ] } },
{ "type": "Feature", "properties": { "_id": 480, "X": 2669885.538722270168364, "Y": 242092.02112103998661, "STORE_ID": 151009, "OFFICIAL_S": "Community Mini Market", "UNOFFICIAL": "Community Mini Market", "STORE_ADDR": "6400 W Girard Ave", "ZIP_CODE": "19151", "STORE_LEVE": "Enhanced Healthy Corner Store" }, "geometry": { "type": "Point", "coordinates": [ -75.247232444631365, 39.970613804583493 ] } },
{ "type": "Feature", "properties": { "_id": 481, "X": 2693176.814011889975518, "Y": 226021.712622980005108, "STORE_ID": 148132, "OFFICIAL_S": "Convenience Grocery", "UNOFFICIAL": "Convenience Grocery", "STORE_ADDR": "2015 S 12th St", "ZIP_CODE": "19148", "STORE_LEVE": "Enhanced Healthy Corner Store" }, "geometry": { "type": "Point", "coordinates": [ -75.165845953793905, 39.924675863057502 ] } },
{ "type": "Feature", "properties": { "_id": 482, "X": 2695301.474357760045677, "Y": 231568.619392319989856, "STORE_ID": 147084, "OFFICIAL_S": "Dasani LLC", "UNOFFICIAL": "Dasani", "STORE_ADDR": "800 S 9th St", "ZIP_CODE": "19147", "STORE_LEVE": "Enhanced Healthy Corner Store" }, "geometry": { "type": "Point", "coordinates": [ -75.157693429462711, 39.939725372081838 ] } },
{ "type": "Feature", "properties": { "_id": 483, "X": 2690284.473786539863795, "Y": 249809.291978230001405, "STORE_ID": 132034, "OFFICIAL_S": "De Los Santos Mini Mart", "UNOFFICIAL": "25th St Mini Mart", "STORE_ADDR": "2300 N 25th St", "ZIP_CODE": "19132", "STORE_LEVE": "Enhanced Healthy Corner Store" }, "geometry": { "type": "Point", "coordinates": [ -75.173680094465738, 39.990179824209605 ] } },
{ "type": "Feature", "properties": { "_id": 484, "X": 2675604.390233280137181, "Y": 236277.17878712998936, "STORE_ID": 143042, "OFFICIAL_S": "Delancey Food Market", "UNOFFICIAL": "German Grocery", "STORE_ADDR": "5266 Delancey St", "ZIP_CODE": "19143", "STORE_LEVE": "Enhanced Healthy Corner Store" }, "geometry": { "type": "Point", "coordinates": [ -75.227429342809984, 39.954211183597273 ] } },
{ "type": "Feature", "properties": { "_id": 485, "X": 2703985.364364820066839, "Y": 261610.941730640013702, "STORE_ID": 120020, "OFFICIAL_S": "Diaz Grocery", "UNOFFICIAL": "Diaz Grocery", "STORE_ADDR": "140 E Wyoming Ave", "ZIP_CODE": "19120", "STORE_LEVE": "Enhanced Healthy Corner Store" }, "geometry": { "type": "Point", "coordinates": [ -75.123552573025819, 40.02145499448546 ] } },
{ "type": "Feature", "properties": { "_id": 486, "X": 2672222.107302609831095, "Y": 233697.275802060001297, "STORE_ID": 143041, "OFFICIAL_S": "Dios Prueba el Hombre Grocery", "UNOFFICIAL": "Ventura Papi Grocery", "STORE_ADDR": "901 S 58th St", "ZIP_CODE": "19143", "STORE_LEVE": "Enhanced Healthy Corner Store" }, "geometry": { "type": "Point", "coordinates": [ -75.239750551586809, 39.947396432735147 ] } },
{ "type": "Feature", "properties": { "_id": 487, "X": 2697364.203919270075858, "Y": 250422.890205259987852, "STORE_ID": 133016, "OFFICIAL_S": "Double Star Food Mart", "UNOFFICIAL": "Double Star Food Mart", "STORE_ADDR": "2562 Germantown Ave", "ZIP_CODE": "19133", "STORE_LEVE": "Enhanced Healthy Corner Store" }, "geometry": { "type": "Point", "coordinates": [ -75.14835992234714, 39.991293826001531 ] } },
{ "type": "Feature", "properties": { "_id": 488, "X": 2674541.638505680020899, "Y": 226349.551162780000595, "STORE_ID": 142021, "OFFICIAL_S": "Dynamic Dollar", "UNOFFICIAL": "Dynamic Dollar", "STORE_ADDR": "6316 Woodland Ave", "ZIP_CODE": "19142", "STORE_LEVE": "Enhanced Healthy Corner Store" }, "geometry": { "type": "Point", "coordinates": [ -75.232228073051573, 39.927052931964987 ] } },
{ "type": "Feature", "properties": { "_id": 489, "X": 2695208.966011390089989, "Y": 248595.927960110013373, "STORE_ID": 132092, "OFFICIAL_S": "Eagle Super Food Market", "UNOFFICIAL": "Eagle Super Food Market", "STORE_ADDR": "2208 N Broad St", "ZIP_CODE": "19132", "STORE_LEVE": "Enhanced Healthy Corner Store" }, "geometry": { "type": "Point", "coordinates": [ -75.156239971330876, 39.986454766944213 ] } },
{ "type": "Feature", "properties": { "_id": 490, "X": 2696433.587138330098242, "Y": 226801.392566030001035, "STORE_ID": 148019, "OFFICIAL_S": "El Rey Dominicano Super Market", "UNOFFICIAL": "El Rey Dominicano", "STORE_ADDR": "1724 S 5Th St", "ZIP_CODE": "19148", "STORE_LEVE": "Enhanced Healthy Corner Store" }, "geometry": { "type": "Point", "coordinates": [ -75.154157468415107, 39.926553100438468 ] } },
{ "type": "Feature", "properties": { "_id": 491, "X": 2695026.433818459976465, "Y": 223143.93506817999878, "STORE_ID": 148060, "OFFICIAL_S": "El Rey Dominicano Supermarket I", "UNOFFICIAL": "El Rey Dominicano Superm", "STORE_ADDR": "2601 S 7Th St", "ZIP_CODE": "19148", "STORE_LEVE": "Enhanced Healthy Corner Store" }, "geometry": { "type": "Point", "coordinates": [ -75.159555028350781, 39.916630652983869 ] } },
{ "type": "Feature", "properties": { "_id": 492, "X": 2700661.431760939769447, "Y": 247003.515621419996023, "STORE_ID": 122004, "OFFICIAL_S": "El Ruvio Grocery", "UNOFFICIAL": "El Ruvio Grocery", "STORE_ADDR": "2066 N 2nd St", "ZIP_CODE": "19122", "STORE_LEVE": "Enhanced Healthy Corner Store" }, "geometry": { "type": "Point", "coordinates": [ -75.136958541289516, 39.981644117440716 ] } },
{ "type": "Feature", "properties": { "_id": 493, "X": 2671281.479525949805975, "Y": 235150.629500540002482, "STORE_ID": 143033, "OFFICIAL_S": "Ena Foods, Inc", "UNOFFICIAL": "ENA Foods", "STORE_ADDR": "648 S 60Th St", "ZIP_CODE": "19143", "STORE_LEVE": "Enhanced Healthy Corner Store" }, "geometry": { "type": "Point", "coordinates": [ -75.242956929564528, 39.951457802467964 ] } },
{ "type": "Feature", "properties": { "_id": 494, "X": 2693129.472618599887937, "Y": 245463.028653490007855, "STORE_ID": 121025, "OFFICIAL_S": "Estevez Food Market", "UNOFFICIAL": "8 Brother's Food Market", "STORE_ADDR": "1738 W Oxford St", "ZIP_CODE": "19121", "STORE_LEVE": "Enhanced Healthy Corner Store" }, "geometry": { "type": "Point", "coordinates": [ -75.163985168206622, 39.978025656826581 ] } },
{ "type": "Feature", "properties": { "_id": 495, "X": 2696203.18294, "Y": 248989.994714970001951, "STORE_ID": 133097, "OFFICIAL_S": "Family M Mini Mart", "UNOFFICIAL": "Torres Mini Mart", "STORE_ADDR": "1213 W Dauphin St", "ZIP_CODE": "19133", "STORE_LEVE": "Enhanced Healthy Corner Store" }, "geometry": { "type": "Point", "coordinates": [ -75.152652115068733, 39.987455857813579 ] } },
{ "type": "Feature", "properties": { "_id": 496, "X": 2699319.728992269840091, "Y": 252541.598450340010459, "STORE_ID": 133066, "OFFICIAL_S": "Felix Grocery", "UNOFFICIAL": "Felix Grocery", "STORE_ADDR": "3000 N 6th St", "ZIP_CODE": "19133", "STORE_LEVE": "Enhanced Healthy Corner Store" }, "geometry": { "type": "Point", "coordinates": [ -75.141160494217203, 39.996949067584531 ] } },
{ "type": "Feature", "properties": { "_id": 497, "X": 2700017.739042390137911, "Y": 252432.887928420008393, "STORE_ID": 133065, "OFFICIAL_S": "Filpo Grocery", "UNOFFICIAL": "Reyes Grocery", "STORE_ADDR": "440 W Indiana Ave", "ZIP_CODE": "19133", "STORE_LEVE": "Enhanced Healthy Corner Store" }, "geometry": { "type": "Point", "coordinates": [ -75.138681700016775, 39.996594150674518 ] } },
{ "type": "Feature", "properties": { "_id": 498, "X": 2698911.524600469972938, "Y": 253038.323318779992405, "STORE_ID": 140045, "OFFICIAL_S": "Fior Mini Market", "UNOFFICIAL": "Miledis Grocery", "STORE_ADDR": "3064 N 7th St", "ZIP_CODE": "19133", "STORE_LEVE": "Enhanced Healthy Corner Store" }, "geometry": { "type": "Point", "coordinates": [ -75.142564493731726, 39.998345132833258 ] } },
{ "type": "Feature", "properties": { "_id": 499, "X": 2699251.383385960012674, "Y": 244094.464812499994878, "STORE_ID": 122016, "OFFICIAL_S": "Four Jefferson Mini Market", "UNOFFICIAL": "La Joya Grocery", "STORE_ADDR": "1500 N 4Th St", "ZIP_CODE": "19122", "STORE_LEVE": "Enhanced Healthy Corner Store" }, "geometry": { "type": "Point", "coordinates": [ -75.142294477013479, 39.973776299390728 ] } },
{ "type": "Feature", "properties": { "_id": 500, "X": 2702588.570118550211191, "Y": 252875.621364010003163, "STORE_ID": 133029, "OFFICIAL_S": "Front Street Grocery Store Inc", "UNOFFICIAL": "Front St Grocery", "STORE_ADDR": "3123 N Front St", "ZIP_CODE": "19133", "STORE_LEVE": "Enhanced Healthy Corner Store" }, "geometry": { "type": "Point", "coordinates": [ -75.129463028913733, 39.997599958107607 ] } },
{ "type": "Feature", "properties": { "_id": 501, "X": 2699623.989079569932073, "Y": 258217.620160910009872, "STORE_ID": 140046, "OFFICIAL_S": "Gil's Deli", "UNOFFICIAL": "Gil's Deli", "STORE_ADDR": "4001 N 7Th St", "ZIP_CODE": "19140", "STORE_LEVE": "Enhanced Healthy Corner Store" }, "geometry": { "type": "Point", "coordinates": [ -75.139476217701372, 40.012498954315738 ] } },
{ "type": "Feature", "properties": { "_id": 502, "X": 2695984.350501019973308, "Y": 239795.822606480011018, "STORE_ID": 123008, "OFFICIAL_S": "Golden Bridge Grocery", "UNOFFICIAL": "Golden Bridge Grocery", "STORE_ADDR": "551 N 10th St", "ZIP_CODE": "19123", "STORE_LEVE": "Enhanced Healthy Corner Store" }, "geometry": { "type": "Point", "coordinates": [ -75.154396971034615, 39.962245283022874 ] } },
{ "type": "Feature", "properties": { "_id": 503, "X": 2704130.247025719843805, "Y": 248242.146032949996879, "STORE_ID": 125009, "OFFICIAL_S": "Gomez Grocery", "UNOFFICIAL": "Gomez Grocery", "STORE_ADDR": "2572 Frankford Ave", "ZIP_CODE": "19125", "STORE_LEVE": "Enhanced Healthy Corner Store" }, "geometry": { "type": "Point", "coordinates": [ -75.124454429987892, 39.98476042658455 ] } },
{ "type": "Feature", "properties": { "_id": 504, "X": 2668219.092944949865341, "Y": 244132.363734699989436, "STORE_ID": 151019, "OFFICIAL_S": "Gomez Grocery", "UNOFFICIAL": "Economic Mini Mart", "STORE_ADDR": "6621 Lebanon Ave", "ZIP_CODE": "19151", "STORE_LEVE": "Enhanced Healthy Corner Store" }, "geometry": { "type": "Point", "coordinates": [ -75.252969876611132, 39.976342033892507 ] } },
{ "type": "Feature", "properties": { "_id": 505, "X": 2692985.05752152018249, "Y": 261747.434308689989848, "STORE_ID": 144036, "OFFICIAL_S": "Gomez Supermarket", "UNOFFICIAL": "Gomez Supermarket", "STORE_ADDR": "4562 Wayne Ave", "ZIP_CODE": "19144", "STORE_LEVE": "Enhanced Healthy Corner Store" }, "geometry": { "type": "Point", "coordinates": [ -75.162798186415202, 40.022720767321239 ] } },
{ "type": "Feature", "properties": { "_id": 506, "X": 2679983.205900120083243, "Y": 231662.011073110013967, "STORE_ID": 143054, "OFFICIAL_S": "Good Neighbor Mini Mart", "UNOFFICIAL": "Good Neighbor Market", "STORE_ADDR": "4837 Woodland Ave", "ZIP_CODE": "19143", "STORE_LEVE": "Enhanced Healthy Corner Store" }, "geometry": { "type": "Point", "coordinates": [ -75.212289633007146, 39.941202826328585 ] } },